[
    {
        "city":"Neerijse",
        "lat":50.8127340562564,
        "lon":4.622892881244533,
        "name":"Biesbemd",
        "street":"Kamstraat 33",
        "tags":[
            "Approved by EVA",
            "EVA voordeel",
            "Veganvriendelijk"
        ],
        "zip":3040
    },
    {
        "city":"Antwerpen",
        "lat":51.21912277399896,
        "lon":4.39791278664577,
        "name":"Falafel Shami",
        "street":"Hoogstraat 47",
        "tags":[
            "Snack",
            "100% vegetarisch",
            "Approved by EVA",
            "Veganvriendelijk"
        ],
        "zip":2000
    },
    {
        "city":"Antwerpen",
        "lat":51.219967595445304,
        "lon":4.398256839416387,
        "name":"Falafel Tof",
        "street":"Hoogstraat 32",
        "tags":[
            "Eethuis",
            "Snack",
            "100% vegetarisch",
            "Approved by EVA",
            "Veganvriendelijk"
        ],
        "zip":2000
    },
    {
        "city":"Antwerpen",
        "lat":51.219967595445304,
        "lon":4.398256839416387,
        "name":"Falafeltof",
        "street":"Hoogstraat 32",
        "tags":[
            "Snack",
            "100% vegetarisch",
            "Approved by EVA",
            "Veganvriendelijk"
        ],
        "zip":2000
    },
    {
        "city":"Deurle",
        "lat":51.00079815695149,
        "lon":3.614998033550879,
        "name":"Markies de Salade",
        "street":"Xavier de Cocklaan 69",
        "tags":[
            "Eethuis",
            "100% plantaardig",
            "100% vegetarisch",
            "Approved by EVA",
            "Veganvriendelijk"
        ],
        "zip":9831
    },
    {
        "city":"Ledeberg",
        "lat":51.037862832515444,
        "lon":3.740955211608581,
        "name":"Qorn'r",
        "street":"Landjuweelstraat 23",
        "tags":[
            "Eethuis",
            "100% vegetarisch",
            "Approved by EVA",
            "EVA voordeel",
            "Veganvriendelijk"
        ],
        "zip":9050
    },
    {
        "city":"Gent",
        "lat":51.054712258948776,
        "lon":3.7151273681040378,
        "name":"Restaurant & Bar Lof",
        "street":"Hoogstraat 36",
        "tags":[
            "Gastronomisch",
            "Approved by EVA",
            "EVA voordeel",
            "Veganvriendelijk"
        ],
        "zip":9000
    },
    {
        "city":"Diksmuide",
        "lat":51.0318704144283,
        "lon":2.8543034959990954,
        "name":"Water en vuur",
        "street":"IJzerdijk 48",
        "tags":[
            "Eethuis",
            "Approved by EVA",
            "EVA voordeel",
            "Veganvriendelijk"
        ],
        "zip":8600
    },
    {
        "city":"Voorde",
        "lat":50.83207522889307,
        "lon":4.023544538763293,
        "name":"Bahn Khoun",
        "street":"Burchtdam 16",
        "tags":[
            "Eethuis"
        ],
        "zip":9400
    },
    {
        "city":"Lokeren",
        "lat":51.1471581981293,
        "lon":3.9593837905030775,
        "name":"Bistro Den Bascuul",
        "street":"Amand de Vosstraat 9",
        "tags":[
            "Eethuis"
        ],
        "zip":9160
    },
    {
        "city":"Sint - Pauwels",
        "lat":51.21816212212936,
        "lon":4.127191954663045,
        "name":"De Koerier",
        "street":"Kerkstraat 27",
        "tags":[
            "Cateraar",
            "Eethuis"
        ],
        "zip":9170
    },
    {
        "city":"Gent",
        "lat":51.05327368048533,
        "lon":3.721594115364494,
        "name":"Pakhuis",
        "street":"Schuurkenstraat 4",
        "tags":[
            "Gastronomisch"
        ],
        "zip":9000
    },
    {
        "city":"Brugge",
        "lat":51.206539755635134,
        "lon":3.2236446181979823,
        "name":"#Food",
        "street":"Oude Burg 30",
        "tags":[
            "Eethuis"
        ],
        "zip":8000
    },
    {
        "city":"Kortrijk",
        "lat":50.81616982873522,
        "lon":3.2705242513034776,
        "name":"'De Blauwe Frituur'",
        "street":"Doorniksesteenweg 22",
        "tags":[
            "Snack"
        ],
        "zip":8500
    },
    {
        "city":"Sint-Niklaas",
        "lat":51.169834802652545,
        "lon":4.14288283181067,
        "name":"'t Centerken",
        "street":"Stationsstraat 131",
        "tags":[
            "Eethuis"
        ],
        "zip":9100
    },
    {
        "city":"Antwerpen",
        "lat":51.204817334665634,
        "lon":4.413242177970222,
        "name":"22b",
        "street":"Sint-Vincentiusstraat 22b",
        "tags":[
            "Eethuis",
            "Snack"
        ],
        "zip":2018
    },
    {
        "city":"Brussel",
        "lat":50.84484272171161,
        "lon":4.358429687831122,
        "name":"A Bubble Tree",
        "street":"Galerie Ravenstein 30",
        "tags":[
            "Eethuis",
            "Veganvriendelijk"
        ],
        "zip":1000
    },
    {
        "city":"Leuven",
        "lat":50.87572228755119,
        "lon":4.708611753145017,
        "name":"A Zamara",
        "street":"Tiensestraat 123",
        "tags":[
            "Eethuis"
        ],
        "zip":3000
    },
    {
        "city":"Antwerpen",
        "lat":51.2155297666382,
        "lon":4.41766054066986,
        "name":"Aahaar",
        "street":"Lange Herentalsestraat 23",
        "tags":[
            "Eethuis",
            "100% vegetarisch",
            "Veganvriendelijk"
        ],
        "zip":2018
    },
    {
        "city":"Brussel",
        "lat":50.84710708745605,
        "lon":4.350023144573089,
        "name":"AB Caf\u00e9 - resto",
        "street":"Steenstraat 23/b",
        "tags":[
            "Eethuis",
            "EVA voordeel"
        ],
        "zip":1000
    },
    {
        "city":"Gent",
        "lat":51.05810624903715,
        "lon":3.7242089868983173,
        "name":"Aba-jour",
        "street":"Oudburg 20",
        "tags":[
            "Eethuis"
        ],
        "zip":9000
    },
    {
        "city":"St-Amandsberg",
        "lat":51.07440894463257,
        "lon":3.7607557022593494,
        "name":"Abre la Boca",
        "street":"Waterstraat 206",
        "tags":[
            "Cateraar"
        ],
        "zip":9040
    },
    {
        "city":"Brussel",
        "lat":50.85232955838954,
        "lon":4.347408149520976,
        "name":"Ajiyoshi",
        "street":"Steenkaai 32",
        "tags":[
            "Eethuis"
        ],
        "zip":1000
    },
    {
        "city":"Antwerpen",
        "lat":51.20894063649523,
        "lon":4.390007364129878,
        "name":"Al Dente",
        "street":"Vlaamsekaai 52",
        "tags":[
            "Eethuis"
        ],
        "zip":2000
    },
    {
        "city":" Brussel",
        "lat":50.83995133658402,
        "lon":4.349429603791874,
        "name":"Al Jannah",
        "street":"Blaesstraat 59",
        "tags":[
            "Eethuis"
        ],
        "zip":1000
    },
    {
        "city":"Gent",
        "lat":51.06008521796525,
        "lon":3.7244527835762598,
        "name":"Alexander De Grote",
        "street":"Rodelijvekensstraat 1",
        "tags":[
            "Eethuis"
        ],
        "zip":9000
    },
    {
        "city":"Nazareth",
        "lat":50.96292163719054,
        "lon":3.600588142463766,
        "name":"Allervita",
        "street":"Kapellestraat 17",
        "tags":[
            "Cateraar"
        ],
        "zip":9810
    },
    {
        "city":"Kortrijk",
        "lat":50.82277377351522,
        "lon":3.282633442818771,
        "name":"AMAH food is life",
        "street":"Hugo verriestlaan 142",
        "tags":[
            "Cateraar"
        ],
        "zip":8500
    },
    {
        "city":"Antwerpen",
        "lat":51.20713801572362,
        "lon":4.42948520939014,
        "name":"Amon",
        "street":"Dageraadplaats 27",
        "tags":[
            "Eethuis"
        ],
        "zip":2018
    },
    {
        "city":"Brussel",
        "lat":50.851934558547846,
        "lon":4.350731337612484,
        "name":"Annapurna",
        "street":"Lakensestraat 26",
        "tags":[
            "Eethuis"
        ],
        "zip":1000
    },
    {
        "city":"Gent",
        "lat":51.06132847652337,
        "lon":3.726603962043045,
        "name":"Aperto Chiuso",
        "street":"Sleepstraat 82",
        "tags":[
            "Eethuis"
        ],
        "zip":9000
    },
    {
        "city":"Vissenaken",
        "lat":50.808724076660006,
        "lon":4.937478128469792,
        "name":"Arax",
        "street":"Gilainstraat 14",
        "tags":[
            "Eethuis"
        ],
        "zip":3300
    },
    {
        "city":"Brussel",
        "lat":50.848438284312294,
        "lon":4.35583037656129,
        "name":"Arcadi",
        "street":"Arenbergstraat 1b",
        "tags":[
            "Eethuis"
        ],
        "zip":1000
    },
    {
        "city":"Antwerpen",
        "lat":51.20677790074904,
        "lon":4.430586524355107,
        "name":"Ardent",
        "street":"Dageraadplaats 3",
        "tags":[
            "Eethuis",
            "Veganvriendelijk"
        ],
        "zip":2018
    },
    {
        "city":"Elsene",
        "lat":50.82445482165293,
        "lon":4.366197226432464,
        "name":"Au Palais des Indes",
        "street":"Louizalaan 263",
        "tags":[
            "Eethuis",
            "EVA voordeel"
        ],
        "zip":1050
    },
    {
        "city":"Gent",
        "lat":51.05771240054376,
        "lon":3.721233250453135,
        "name":"Avalon",
        "street":"Geldmunt 32",
        "tags":[
            "Cateraar",
            "Eethuis",
            "Gastronomisch",
            "100% vegetarisch",
            "EVA voordeel",
            "Veganvriendelijk"
        ],
        "zip":9000
    },
    {
        "city":"Antwerpen",
        "lat":51.209982535190655,
        "lon":4.393771366034952,
        "name":"Azuma",
        "street":"Verlatstraat 39",
        "tags":[
            "Eethuis"
        ],
        "zip":2000
    },
    {
        "city":"Poeke",
        "lat":51.1218037874967,
        "lon":3.4282576316061175,
        "name":"Bacchus",
        "street":"Aalterweg 10",
        "tags":[
            "Eethuis"
        ],
        "zip":9880
    },
    {
        "city":"Tielt-Winge",
        "lat":50.95493478850118,
        "lon":4.914218355575642,
        "name":"Bakkerij Hans",
        "street":"Haksberg 43",
        "tags":[
            "Cateraar"
        ],
        "zip":3390
    },
    {
        "city":"Wommelgem",
        "lat":51.20823263872455,
        "lon":4.4899724997553125,
        "name":"Bali",
        "street":"Autolei 217",
        "tags":[
            "Eethuis"
        ],
        "zip":2160
    },
    {
        "city":"Brussel",
        "lat":50.84833842321012,
        "lon":4.348602688989273,
        "name":"Bambou Fleur",
        "street":"Jules van Praetstraat 13",
        "tags":[
            "Eethuis"
        ],
        "zip":1000
    },
    {
        "city":"Overpelt",
        "lat":51.213289318590704,
        "lon":5.423767332333873,
        "name":"Bananasplit",
        "street":"Dorpsstraat 55",
        "tags":[
            "Eethuis"
        ],
        "zip":3900
    },
    {
        "city":"Brussel",
        "lat":50.85547627038862,
        "lon":4.34975009447347,
        "name":"Bar Bik",
        "street":"Quai Aux Pierres De Taille 3",
        "tags":[
            "Eethuis",
            "Veganvriendelijk"
        ],
        "zip":1000
    },
    {
        "city":"Antwerpen",
        "lat":51.22363339700229,
        "lon":4.403512495813195,
        "name":"Bar Buenos Aires",
        "street":"Koepoortbrug 3",
        "tags":[
            "Snack"
        ],
        "zip":2000
    },
    {
        "city":"Antwerpen",
        "lat":51.21972495373421,
        "lon":4.4230752880307165,
        "name":"Bar d'Office",
        "street":"Dambruggestraat 29",
        "tags":[
            "Snack"
        ],
        "zip":2060
    },
    {
        "city":"Antwerpen",
        "lat":51.21008126283823,
        "lon":4.394429678642773,
        "name":"Bar Italia",
        "street":"Graaf Van Egmontstraat 59",
        "tags":[
            "Eethuis"
        ],
        "zip":2000
    },
    {
        "city":"Leuven",
        "lat":50.8713438612334,
        "lon":4.702542071888302,
        "name":"Bar Stan",
        "street":"Constantin Meunierstraat 2",
        "tags":[
            "Eethuis"
        ],
        "zip":3000
    },
    {
        "city":"Gent",
        "lat":51.05017292175058,
        "lon":3.729937197766088,
        "name":"Barista coffee&cake",
        "street":"Hippoliet Lippensplein 25 en Meersseniersstraat 16",
        "tags":[
            "Snack",
            "Veganvriendelijk"
        ],
        "zip":9000
    },
    {
        "city":"Antwerpen",
        "lat":51.225295682360944,
        "lon":4.405346032620327,
        "name":"Bartilia",
        "street":"Falconplein 43",
        "tags":[
            "Eethuis",
            "Snack",
            "100% vegetarisch"
        ],
        "zip":2000
    },
    {
        "city":"Turnhout",
        "lat":51.32459856260331,
        "lon":4.943619612262634,
        "name":"Barzoen",
        "street":"Warandestraat 42",
        "tags":[
            "Eethuis",
            "Snack"
        ],
        "zip":2300
    },
    {
        "city":"Leuven",
        "lat":50.87844231211624,
        "lon":4.700532299142458,
        "name":"Basecamp",
        "street":"Naamsestraat 16",
        "tags":[
            "Eethuis"
        ],
        "zip":3000
    },
    {
        "city":"Mechelen",
        "lat":51.02708277185859,
        "lon":4.48066333683549,
        "name":"Basic Italian",
        "street":"Bruul 22",
        "tags":[
            "Eethuis"
        ],
        "zip":2800
    },
    {
        "city":"Etterbeek",
        "lat":50.83712929773853,
        "lon":4.381812812513121,
        "name":"Be Positive",
        "street":"Jourdanplein 26",
        "tags":[
            "Eethuis"
        ],
        "zip":1040
    },
    {
        "city":"Gent",
        "lat":51.05479837484676,
        "lon":3.7209597426271697,
        "name":"Belga Queen",
        "street":"Graslei 10",
        "tags":[
            "Eethuis"
        ],
        "zip":9000
    },
    {
        "city":"Oostende",
        "lat":51.22989099952995,
        "lon":2.916976007330142,
        "name":"Belle du jour",
        "street":"Aartshertoginnestraat 5",
        "tags":[
            "Eethuis"
        ],
        "zip":8400
    },
    {
        "city":"Brussel",
        "lat":50.851349518519655,
        "lon":4.346386126894671,
        "name":"Bellone Caf\u00e9",
        "street":"Vlaamsesteenweg 46",
        "tags":[
            "Snack"
        ],
        "zip":1000
    },
    {
        "city":"Brugge",
        "lat":51.20635474285077,
        "lon":3.2231053582595637,
        "name":"Bhavani",
        "street":"Simon Stevenplein 5",
        "tags":[
            "Eethuis"
        ],
        "zip":8000
    },
    {
        "city":"Kessel-Lo",
        "lat":50.88188143499887,
        "lon":4.717338791914262,
        "name":"Biokoffiebar Reispunt",
        "street":"Martelarenlaan 14",
        "tags":[
            "Snack"
        ],
        "zip":3010
    },
    {
        "city":"Widooie (Haren)",
        "lat":50.781849386943776,
        "lon":5.463072362499631,
        "name":"Bistro Bis",
        "street":"Hemelingenstraat 23",
        "tags":[
            "Eethuis"
        ],
        "zip":3700
    },
    {
        "city":"Aalst",
        "lat":50.93733997451418,
        "lon":4.035177431453215,
        "name":"Bistro D'licious",
        "street":"Keizersplein 22a",
        "tags":[
            "Eethuis",
            "EVA voordeel"
        ],
        "zip":9300
    },
    {
        "city":"Antwerpen",
        "lat":51.22143163567633,
        "lon":4.402179671328716,
        "name":"Bites and Wines",
        "street":"Oude Beurs 60",
        "tags":[
            "Eethuis",
            "100% plantaardig"
        ],
        "zip":2000
    },
    {
        "city":"Kalmthout",
        "lat":51.394670836508645,
        "lon":4.473264698470573,
        "name":"Bjorn Matheusen",
        "street":"Molenstraat 4",
        "tags":[
            "Cateraar"
        ],
        "zip":2920
    },
    {
        "city":"Gent",
        "lat":51.04479131654757,
        "lon":3.723878785100654,
        "name":"Bluesette",
        "street":"Sint-Kwintensberg 85",
        "tags":[
            "Eethuis"
        ],
        "zip":9000
    },
    {
        "city":"Antwerpen",
        "lat":51.21459512807877,
        "lon":4.417287451516119,
        "name":"Bollywood",
        "street":"Lange Herentalsestraat 56",
        "tags":[
            "Eethuis",
            "100% vegetarisch"
        ],
        "zip":2018
    },
    {
        "city":"Brussel",
        "lat":50.84868071551028,
        "lon":4.353345325113805,
        "name":"Bombay Inn",
        "street":"Greepstraat 38",
        "tags":[
            "Eethuis",
            "EVA voordeel"
        ],
        "zip":1000
    },
    {
        "city":"Nazareth",
        "lat":50.96483423402093,
        "lon":3.6515210762002246,
        "name":"Bonaparte",
        "street":"Steenweg 231",
        "tags":[
            "Eethuis"
        ],
        "zip":9810
    },
    {
        "city":"Antwerpen",
        "lat":51.22260007555398,
        "lon":4.402352292031972,
        "name":"Bonnie + Fr\u00f8",
        "street":"Lange Koepoortstraat 2/403",
        "tags":[
            "Cateraar"
        ],
        "zip":2000
    },
    {
        "city":"Brussel",
        "lat":50.851025577687416,
        "lon":4.344724801138332,
        "name":"Bonsoir Clara",
        "street":"Dansaertstraat 22",
        "tags":[
            "Eethuis"
        ],
        "zip":1000
    },
    {
        "city":" Brugge",
        "lat":51.20439256866853,
        "lon":3.229364025893704,
        "name":"Books & Brunch",
        "street":"Garenmarkt 30",
        "tags":[
            "Eethuis"
        ],
        "zip":8000
    },
    {
        "city":"Ronse",
        "lat":50.75282662062917,
        "lon":3.6033879748722746,
        "name":"Boon",
        "street":"Sint Martensstraat 7",
        "tags":[
            "Eethuis"
        ],
        "zip":9600
    },
    {
        "city":" Heist- op- den- Berg ( Hallaar)",
        "lat":51.089730634410415,
        "lon":4.708057820687655,
        "name":"Boshuis Averegten",
        "street":"Boonmarkt 12",
        "tags":[
            "Eethuis"
        ],
        "zip":2220
    },
    {
        "city":"Oostende",
        "lat":51.233705722674465,
        "lon":2.917215242469248,
        "name":"Bottarga",
        "street":"Albert I Promenade 64c",
        "tags":[
            "Eethuis"
        ],
        "zip":8400
    },
    {
        "city":"Westouter",
        "lat":50.79101740974222,
        "lon":2.745757223683968,
        "name":"Bourgondie",
        "street":"Bellestraat 21",
        "tags":[
            "Eethuis"
        ],
        "zip":8954
    },
    {
        "city":"Genk",
        "lat":50.96528693810857,
        "lon":5.496655941658058,
        "name":"Brasserie 360",
        "street":"Stadsplein 16",
        "tags":[
            "Eethuis"
        ],
        "zip":3600
    },
    {
        "city":"Aalst",
        "lat":50.93604835588348,
        "lon":4.03938341814389,
        "name":"Brasserie Het Element",
        "street":"Korte Zoutstraat 6v",
        "tags":[
            "Eethuis"
        ],
        "zip":9300
    },
    {
        "city":"Oud-Heverlee",
        "lat":50.823739665780934,
        "lon":4.653125760166389,
        "name":"Brasserie St-Jean",
        "street":"Waversebaan 157",
        "tags":[
            "Eethuis"
        ],
        "zip":3050
    },
    {
        "city":"Aalst",
        "lat":50.92776627746473,
        "lon":4.03517422595287,
        "name":"Brasseur",
        "street":"Parklaan 62",
        "tags":[
            "Eethuis"
        ],
        "zip":9300
    },
    {
        "city":"Ukkel",
        "lat":50.809145087626455,
        "lon":4.35740127357715,
        "name":"Brother and sister",
        "street":"Rue Edith Cavell 178",
        "tags":[
            "Cateraar",
            "Snack"
        ],
        "zip":1180
    },
    {
        "city":"Antwerpen",
        "lat":51.229978903931446,
        "lon":4.404433550038374,
        "name":"Burgerij",
        "street":"Sint-Laureiskaai 8",
        "tags":[
            "Eethuis"
        ],
        "zip":2000
    },
    {
        "city":"Schoten",
        "lat":51.27798374196482,
        "lon":4.526455139252933,
        "name":"Burgerij",
        "street":"Brechtsebaan 298",
        "tags":[
            "Eethuis"
        ],
        "zip":2900
    },
    {
        "city":"Aalst",
        "lat":50.93882800207421,
        "lon":4.04007531211864,
        "name":"Bvba Lowie",
        "street":"Molenstraat 16",
        "tags":[
            "Eethuis"
        ],
        "zip":9300
    },
    {
        "city":"Ledeberg",
        "lat":51.03463721275709,
        "lon":3.734525810008194,
        "name":"Bvba Souperette",
        "street":"Bellevuestraat 30b",
        "tags":[
            "Cateraar"
        ],
        "zip":9050
    },
    {
        "city":"Antwerpen",
        "lat":51.225295682360944,
        "lon":4.405346032620327,
        "name":"Caf\u00e9 Bartilia",
        "street":"Falconplein 43",
        "tags":[
            "Eethuis"
        ],
        "zip":2000
    },
    {
        "city":"Etterbeel",
        "lat":50.83724616336309,
        "lon":4.38179865020872,
        "name":"Caf\u00e9 des \u00e9pices",
        "street":"Jourdanplein 21",
        "tags":[
            "Eethuis"
        ],
        "zip":1040
    },
    {
        "city":"Sint-Gillis",
        "lat":50.82436234124813,
        "lon":4.343375543608509,
        "name":"Caf\u00e9 des spores",
        "street":"Chauss\u00e9e d'Alsemberg 103",
        "tags":[
            "Eethuis"
        ],
        "zip":1060
    },
    {
        "city":"Aarschot",
        "lat":51.00510476862285,
        "lon":4.837067915899821,
        "name":"Caf\u00e9 Diner",
        "street":"Herseltsesteenweg 243",
        "tags":[
            "Eethuis"
        ],
        "zip":3200
    },
    {
        "city":"Kortrijk",
        "lat":50.82424474523215,
        "lon":3.273557858855834,
        "name":"Caf\u00e9 Fernand",
        "street":"Zwevegemsestraat 61",
        "tags":[
            "Eethuis"
        ],
        "zip":8500
    },
    {
        "city":"Hasselt",
        "lat":50.93087469351139,
        "lon":5.339439252105995,
        "name":"Caf\u00e9 Latino",
        "street":"Zuivelmarkt 12",
        "tags":[
            "Eethuis"
        ],
        "zip":3500
    },
    {
        "city":"Elsene",
        "lat":50.82353737991498,
        "lon":4.357014817606931,
        "name":"Caf\u00e9 Panisse",
        "street":"Rue du Tabellion 31",
        "tags":[
            "Eethuis",
            "Veganvriendelijk"
        ],
        "zip":1050
    },
    {
        "city":"Brussel",
        "lat":50.847862473722664,
        "lon":4.351854614231369,
        "name":"Caf\u00e9 Walvis",
        "street":"Rue A. Dansaertstraat 205",
        "tags":[
            "Snack"
        ],
        "zip":1000
    },
    {
        "city":"Gent",
        "lat":51.04671496879238,
        "lon":3.7222266064501777,
        "name":"Caff\u00e9 Caff\u00e9\u00e9",
        "street":"Nederkouter 129",
        "tags":[
            "Snack"
        ],
        "zip":9000
    },
    {
        "city":"Antwerpen",
        "lat":51.21484138052214,
        "lon":4.407813549627389,
        "name":"Cantina",
        "street":"Arenbergstraat 28",
        "tags":[
            "Eethuis"
        ],
        "zip":2000
    },
    {
        "city":"Antwerpen",
        "lat":51.22097328163296,
        "lon":4.401993262968322,
        "name":"Caramba",
        "street":"Kaasrui 8",
        "tags":[
            "Eethuis"
        ],
        "zip":2000
    },
    {
        "city":"Gent",
        "lat":51.04766073230593,
        "lon":3.709578442182387,
        "name":"Carte Blanche",
        "street":"Martelaarslaan 321",
        "tags":[
            "Gastronomisch"
        ],
        "zip":9000
    },
    {
        "city":"Gent",
        "lat":51.04178433233594,
        "lon":3.731306350028227,
        "name":"Casa di Batavia",
        "street":"Fran\u00e7ois Benardstraat 80",
        "tags":[
            "Cateraar",
            "Eethuis",
            "Snack",
            "EVA voordeel"
        ],
        "zip":9000
    },
    {
        "city":"Antwerpen",
        "lat":51.21837692295786,
        "lon":4.397168058797844,
        "name":"Celeste",
        "street":"Hoogstraat 77",
        "tags":[],
        "zip":2000
    },
    {
        "city":"Sint-Katelijne-Waver",
        "lat":51.055799784919564,
        "lon":4.463460193360536,
        "name":"Centpourcent",
        "street":"Antwerpsesteenweg 1",
        "tags":[
            "Eethuis"
        ],
        "zip":2860
    },
    {
        "city":"Brussel",
        "lat":50.83969083421705,
        "lon":4.350693259480191,
        "name":"Ch\u00e9ri Ch\u00e9ri",
        "street":"Hoogstraat 89 Rue Haute",
        "tags":[
            "Snack"
        ],
        "zip":1000
    },
    {
        "city":"Hasselt",
        "lat":50.92484067157494,
        "lon":5.31654145966145,
        "name":"Chess Caf\u00e9",
        "street":"Runkstersteenweg 247",
        "tags":[
            "Eethuis"
        ],
        "zip":3500
    },
    {
        "city":"Gent",
        "lat":51.03016504332595,
        "lon":3.730366696662502,
        "name":"Chess Caf\u00e9",
        "street":"Ottergemsesteenweg 802",
        "tags":[
            "Eethuis"
        ],
        "zip":9000
    },
    {
        "city":"Etterbeek",
        "lat":50.8363741750054,
        "lon":4.381826787909339,
        "name":"Chez Michel",
        "street":"Sint-Pieterssteenweg 5",
        "tags":[
            "Eethuis"
        ],
        "zip":1040
    },
    {
        "city":"Antwerpen",
        "lat":51.22103715476721,
        "lon":4.398486545279975,
        "name":"Chez Vincent",
        "street":"Suikerrui 25",
        "tags":[
            "Snack"
        ],
        "zip":2000
    },
    {
        "city":"Overijse",
        "lat":50.7909888425228,
        "lon":4.487232287621554,
        "name":"Chi Chi's",
        "street":"Brusselsesteenweg 541",
        "tags":[],
        "zip":3090
    },
    {
        "city":"Antwerpen",
        "lat":51.215634043043295,
        "lon":4.402447350921276,
        "name":"Chickpea",
        "street":"Oudaan 4",
        "tags":[
            "Snack",
            "Veganvriendelijk"
        ],
        "zip":2000
    },
    {
        "city":"Brussel",
        "lat":50.847233005352486,
        "lon":4.350449081140504,
        "name":"Choosy",
        "street":"Steenstraat 40",
        "tags":[
            "Snack"
        ],
        "zip":1000
    },
    {
        "city":"Gent",
        "lat":51.063169457653224,
        "lon":3.7099735944276535,
        "name":"Cigk\u00f6ftem",
        "street":"Wondelgemstraat 86",
        "tags":[
            "Snack",
            "Veganvriendelijk"
        ],
        "zip":9000
    },
    {
        "city":"Bavikhove-Harelbeke",
        "lat":50.87440453599666,
        "lon":3.3060508188066895,
        "name":"CILIMANGARO",
        "street":"Koeksken 31",
        "tags":[
            "Cateraar"
        ],
        "zip":8531
    },
    {
        "city":"Gent",
        "lat":51.054683187390964,
        "lon":3.742912037056209,
        "name":"Clouds In My Coffee",
        "street":"Dendermondsesteenweg 104",
        "tags":[
            "Snack"
        ],
        "zip":9000
    },
    {
        "city":"Zaventem",
        "lat":50.889853533858705,
        "lon":4.470570393493417,
        "name":"Coco Mango",
        "street":"Vilvoordelaan 89",
        "tags":[
            "Eethuis"
        ],
        "zip":1930
    },
    {
        "city":"Gent",
        "lat":51.055072160945905,
        "lon":3.720071644359223,
        "name":"Coeur d'Artichaut",
        "street":"Korenlei 10",
        "tags":[
            "Eethuis"
        ],
        "zip":9000
    },
    {
        "city":"Leuven",
        "lat":50.87884868218141,
        "lon":4.699881552312265,
        "name":"Com.media",
        "street":"Oude Markt 55",
        "tags":[
            "Eethuis"
        ],
        "zip":3000
    },
    {
        "city":"Brussel",
        "lat":50.851025577687416,
        "lon":4.344724801138332,
        "name":"Como Como",
        "street":"Antoine Dansaert 19",
        "tags":[
            "Eethuis",
            "Veganvriendelijk"
        ],
        "zip":1000
    },
    {
        "city":"Antwerpen",
        "lat":51.21623643933862,
        "lon":4.401846697459598,
        "name":"ComoComo",
        "street":"Kammenstraat 75",
        "tags":[
            "Snack",
            "Veganvriendelijk"
        ],
        "zip":2000
    },
    {
        "city":"Sint-Joris (Beernem)",
        "lat":51.125932715305225,
        "lon":3.3568331787588357,
        "name":"Cooking@home",
        "street":"Lattenklieversstraat 145",
        "tags":[
            "Cateraar",
            "100% vegetarisch",
            "EVA voordeel"
        ],
        "zip":8730
    },
    {
        "city":"Beernem",
        "lat":51.125932715305225,
        "lon":3.3568331787588357,
        "name":"cookingathome",
        "street":"Lattenklieversstraat 145",
        "tags":[
            "Cateraar"
        ],
        "zip":8730
    },
    {
        "city":"Waardamme",
        "lat":51.12006055145093,
        "lon":3.219149118225608,
        "name":"Cowboy Up",
        "street":"Kortrijksestraat 350",
        "tags":[
            "Eethuis"
        ],
        "zip":8020
    },
    {
        "city":"Oostende",
        "lat":51.22615651857145,
        "lon":2.9137562446469474,
        "name":"Cristallo",
        "street":"Alfons Pieterslaan 35",
        "tags":[
            "Eethuis"
        ],
        "zip":8400
    },
    {
        "city":"Borgerhout",
        "lat":51.2111626400326,
        "lon":4.433568944687725,
        "name":"Cucina dell'arte",
        "street":"koxplein 28",
        "tags":[
            "Eethuis"
        ],
        "zip":2140
    },
    {
        "city":"Borgerhout",
        "lat":51.2111626400326,
        "lon":4.433568944687725,
        "name":"Cucina dell\u2019arte",
        "street":"Koxplein 28",
        "tags":[
            "Cateraar"
        ],
        "zip":2140
    },
    {
        "city":"Leuven",
        "lat":50.878379225710916,
        "lon":4.7005886888602815,
        "name":"D'entreprise",
        "street":"Naamsestraat 18",
        "tags":[
            "Eethuis"
        ],
        "zip":3000
    },
    {
        "city":"Gent",
        "lat":51.049556774132256,
        "lon":3.7390586317684047,
        "name":"Dali",
        "street":"Kasteellaan 51",
        "tags":[
            "Eethuis"
        ],
        "zip":9000
    },
    {
        "city":"Sterrebeek",
        "lat":50.85109241703316,
        "lon":4.504468088734993,
        "name":"dauranta vzw",
        "street":"Hippodroomlaan 173",
        "tags":[
            "Cateraar"
        ],
        "zip":1933
    },
    {
        "city":"Leuven",
        "lat":50.87744373567944,
        "lon":4.707075475899087,
        "name":"De Appel",
        "street":"Ravenstraat 11",
        "tags":[
            "Eethuis"
        ],
        "zip":3000
    },
    {
        "city":"Gent",
        "lat":51.03871080532511,
        "lon":3.7281400842803483,
        "name":"De Appelier",
        "street":"Citadellaan 47",
        "tags":[
            "Eethuis",
            "100% vegetarisch",
            "EVA voordeel",
            "Veganvriendelijk"
        ],
        "zip":9000
    },
    {
        "city":"Retie",
        "lat":51.24750305947439,
        "lon":5.028298297873405,
        "name":"De Bospaddestoel",
        "street":"Beverdonk 1",
        "tags":[
            "Eethuis"
        ],
        "zip":2470
    },
    {
        "city":"Antwerpen",
        "lat":51.210510865970306,
        "lon":4.401685138447252,
        "name":"De Broers van Julienne",
        "street":"Kasteelpleinstraat 45-47",
        "tags":[
            "Cateraar",
            "Eethuis",
            "Veganvriendelijk"
        ],
        "zip":2000
    },
    {
        "city":"Brugge",
        "lat":51.20195648484883,
        "lon":3.2265759750469947,
        "name":"De Bron",
        "street":"Katelijnestraat 82",
        "tags":[
            "Eethuis",
            "100% vegetarisch",
            "Veganvriendelijk"
        ],
        "zip":8000
    },
    {
        "city":"Gent",
        "lat":51.05585550158825,
        "lon":3.7203032738924646,
        "name":"De Brooderie",
        "street":"Jan Breydelstraat 8",
        "tags":[
            "Snack"
        ],
        "zip":9000
    },
    {
        "city":"Brugge",
        "lat":51.20608745457625,
        "lon":3.2224250188786776,
        "name":"De Buhne",
        "street":"Sint-Salvatorskoorstraat 6",
        "tags":[
            "Eethuis",
            "100% vegetarisch"
        ],
        "zip":8000
    },
    {
        "city":"Berchem",
        "lat":51.205437272862085,
        "lon":4.433088721689656,
        "name":"De Burgerij",
        "street":"Tramplein 2",
        "tags":[
            "Snack"
        ],
        "zip":2600
    },
    {
        "city":"Lier",
        "lat":51.13132821940978,
        "lon":4.567786958737899,
        "name":"De Comeet",
        "street":"Florent van Cauwenberghstraat 16&18",
        "tags":[
            "Eethuis",
            "Snack",
            "Veganvriendelijk"
        ],
        "zip":2500
    },
    {
        "city":"Gent",
        "lat":51.04450802913183,
        "lon":3.7363030276043236,
        "name":"De Fobie",
        "street":"Brusselsepoortstraat 61",
        "tags":[
            "Eethuis",
            "Veganvriendelijk"
        ],
        "zip":9000
    },
    {
        "city":"Hofstade",
        "lat":50.984694727169696,
        "lon":4.051133114766306,
        "name":"De Frietkampioen",
        "street":"Steenweg naar Oudegem 151",
        "tags":[
            "Snack"
        ],
        "zip":9308
    },
    {
        "city":"Gent",
        "lat":51.050574159996295,
        "lon":3.711348692007254,
        "name":"De Frietketel",
        "street":"Papegaaistraat 89",
        "tags":[
            "Snack",
            "EVA voordeel",
            "Veganvriendelijk"
        ],
        "zip":9000
    },
    {
        "city":"Scheldewindeke",
        "lat":50.945808374751785,
        "lon":3.8043274341728535,
        "name":"De Frietketel",
        "street":"Dorp 36 A1",
        "tags":[
            "Snack"
        ],
        "zip":9860
    },
    {
        "city":"Leopoldsburg",
        "lat":51.11898169597435,
        "lon":5.263877679103315,
        "name":"De Gastvrijheid",
        "street":"Koningin Astridplein 40",
        "tags":[
            "Eethuis",
            "EVA voordeel",
            "Veganvriendelijk"
        ],
        "zip":3970
    },
    {
        "city":"Hasselt",
        "lat":50.932182265645956,
        "lon":5.342212022734895,
        "name":"De geletterde mens",
        "street":"Kolonel Dusartplein 48",
        "tags":[
            "Eethuis"
        ],
        "zip":3500
    },
    {
        "city":"Teralfene",
        "lat":50.920794767047695,
        "lon":4.133752697603763,
        "name":"De Glazen Toren",
        "street":"Domentstraat 45",
        "tags":[
            "Eethuis",
            "EVA voordeel"
        ],
        "zip":1790
    },
    {
        "city":"Sint Amandsberg",
        "lat":51.06957803591319,
        "lon":3.7635292331689936,
        "name":"De Goede Zaak",
        "street":"Emiel Maeyensstraat 22",
        "tags":[
            "Cateraar"
        ],
        "zip":9040
    },
    {
        "city":"Hasselt",
        "lat":50.93102549898484,
        "lon":5.339684217368552,
        "name":"De Goei Goesting",
        "street":"Zuivelmarkt 18",
        "tags":[
            "Eethuis"
        ],
        "zip":3500
    },
    {
        "city":"Oostende",
        "lat":51.222225939314896,
        "lon":2.9165273956225355,
        "name":"De Graankorrel",
        "street":"Edith Cavellstraat 86",
        "tags":[
            "Eethuis",
            "100% vegetarisch"
        ],
        "zip":8400
    },
    {
        "city":"Hasselt",
        "lat":50.93124479935025,
        "lon":5.340343160933796,
        "name":"De Groene Hendrickx",
        "street":"Zuivelmarkt 25",
        "tags":[
            "Eethuis"
        ],
        "zip":3500
    },
    {
        "city":"Gent",
        "lat":51.03032850175406,
        "lon":3.7046331681886437,
        "name":"De Groene Waaier",
        "street":"Schoonmeersstraat 25",
        "tags":[
            "Cateraar",
            "Gastronomisch",
            "100% vegetarisch",
            "Veganvriendelijk"
        ],
        "zip":9000
    },
    {
        "city":"Zonhoven",
        "lat":50.99571473267463,
        "lon":5.409348523745904,
        "name":"De Hofmakerij vzw",
        "street":"Koningsbergweg 28",
        "tags":[
            "Cateraar"
        ],
        "zip":3520
    },
    {
        "city":"Antwerpen",
        "lat":51.21670426391802,
        "lon":4.400315653146848,
        "name":"De Juliette",
        "street":"Ijzerenwaag 4",
        "tags":[
            "Cateraar",
            "Snack"
        ],
        "zip":2000
    },
    {
        "city":"Zoersel",
        "lat":51.267449115996186,
        "lon":4.640324090051692,
        "name":"De Kadee",
        "street":"Handelslei 164",
        "tags":[
            "Eethuis"
        ],
        "zip":2980
    },
    {
        "city":"Gent",
        "lat":51.05200414637008,
        "lon":3.7195864247758226,
        "name":"De Kastart",
        "street":"Onderbergen 42",
        "tags":[
            "Eethuis"
        ],
        "zip":9000
    },
    {
        "city":"Zottegem",
        "lat":50.868970901696756,
        "lon":3.813077123744012,
        "name":"De Kleine Prins",
        "street":"Stationsstraat 33",
        "tags":[
            "Eethuis"
        ],
        "zip":9620
    },
    {
        "city":"Kortrijk",
        "lat":50.83005475415859,
        "lon":3.2641953087025115,
        "name":"De KleinKeuken",
        "street":"Budastraat 8",
        "tags":[
            "Eethuis",
            "100% vegetarisch",
            "Veganvriendelijk"
        ],
        "zip":8500
    },
    {
        "city":"Leuven",
        "lat":50.87092953730719,
        "lon":4.693233670130759,
        "name":"De Koerier van Navarra",
        "street":"Tervuursevest 130",
        "tags":[
            "Eethuis"
        ],
        "zip":3000
    },
    {
        "city":"Leuven",
        "lat":50.87637634067053,
        "lon":4.706257891345667,
        "name":"De Kruimel",
        "street":"Tiensestraat 92",
        "tags":[
            "Eethuis"
        ],
        "zip":3000
    },
    {
        "city":"Voorde",
        "lat":50.83688473183124,
        "lon":4.020513830758552,
        "name":"De Lavendel",
        "street":"Lavendelstraat 11",
        "tags":[
            "Eethuis"
        ],
        "zip":9400
    },
    {
        "city":"Hasselt",
        "lat":50.92809989587098,
        "lon":5.333606388978036,
        "name":"De Levensboom",
        "street":"Leopoldplein 44",
        "tags":[
            "Eethuis"
        ],
        "zip":3500
    },
    {
        "city":"Sleidinge",
        "lat":51.0910315715149,
        "lon":3.652128056085782,
        "name":"De Lieve's Bistronoom",
        "street":"Rabotstraat 120",
        "tags":[
            "Eethuis"
        ],
        "zip":9940
    },
    {
        "city":"Noorderwijk",
        "lat":51.17404793731025,
        "lon":4.838350783332316,
        "name":"De Mangerie",
        "street":"Bovenrij 17",
        "tags":[
            "Eethuis"
        ],
        "zip":2200
    },
    {
        "city":"Brussel",
        "lat":50.85045063605696,
        "lon":4.3467557536106165,
        "name":"De Markten",
        "street":"Oude Graanmarkt 5",
        "tags":[
            "Eethuis"
        ],
        "zip":1000
    },
    {
        "city":"Brussel",
        "lat":50.85045063605696,
        "lon":4.3467557536106165,
        "name":"De Markten",
        "street":"Oude Graanmarkt 5",
        "tags":[
            "Eethuis"
        ],
        "zip":1000
    },
    {
        "city":"Lier",
        "lat":51.12083542468261,
        "lon":4.5695131640707,
        "name":"De Nieuwe Schapestal",
        "street":"Koning Albertstraat 3",
        "tags":[
            "Eethuis"
        ],
        "zip":2500
    },
    {
        "city":"Gent",
        "lat":51.05524357167466,
        "lon":3.720183376026259,
        "name":"De Onvrije Schipper",
        "street":"Korenlei 7A",
        "tags":[
            "Eethuis",
            "Veganvriendelijk"
        ],
        "zip":9000
    },
    {
        "city":"Hasselt",
        "lat":50.93173840825557,
        "lon":5.337180928641174,
        "name":"De Orangerie",
        "street":"Walputstraat 9",
        "tags":[
            "Eethuis"
        ],
        "zip":3500
    },
    {
        "city":"Tessenderlo",
        "lat":51.06754293208439,
        "lon":5.089831454105058,
        "name":"De oude post",
        "street":"Stationsstraat 1",
        "tags":[
            "Eethuis"
        ],
        "zip":3980
    },
    {
        "city":"Gent",
        "lat":51.0582325568718,
        "lon":3.724292833288057,
        "name":"De Panda",
        "street":"Oudburg 38A",
        "tags":[
            "Eethuis",
            "Veganvriendelijk"
        ],
        "zip":9000
    },
    {
        "city":"Brussel",
        "lat":50.84799659284419,
        "lon":4.347268056154273,
        "name":"De Piero",
        "street":"Sint-Goriksplein 21-22",
        "tags":[
            "Eethuis"
        ],
        "zip":1000
    },
    {
        "city":"Waregem",
        "lat":50.88516382018355,
        "lon":3.43484053717165,
        "name":"De Postelein",
        "street":"Holstraat 40",
        "tags":[
            "Eethuis",
            "EVA voordeel",
            "Veganvriendelijk"
        ],
        "zip":8790
    },
    {
        "city":"Waregem",
        "lat":50.88516382018355,
        "lon":3.43484053717165,
        "name":"De Postelein Natuur Eethuis",
        "street":"Holstraat 40",
        "tags":[
            "Cateraar"
        ],
        "zip":8790
    },
    {
        "city":"Noorderwijk",
        "lat":51.177834005283856,
        "lon":4.835628965390239,
        "name":"De Posterijen",
        "street":"Markt 13",
        "tags":[
            "Eethuis"
        ],
        "zip":2200
    },
    {
        "city":"Hasselt",
        "lat":50.93203362464369,
        "lon":5.3395343776232895,
        "name":"De Preuverie",
        "street":"Paardsdemerstraat 21",
        "tags":[
            "Eethuis",
            "Veganvriendelijk"
        ],
        "zip":3500
    },
    {
        "city":"Sint-Niklaas",
        "lat":51.16854900742554,
        "lon":4.1426602773856605,
        "name":"De Regent",
        "street":"Regentiestraat 3",
        "tags":[
            "Eethuis",
            "Snack"
        ],
        "zip":9100
    },
    {
        "city":"Noorderwijk",
        "lat":51.1887115753058,
        "lon":4.833034569395046,
        "name":"De Repertoire",
        "street":"Poederleeseweg 15",
        "tags":[
            "Eethuis"
        ],
        "zip":2200
    },
    {
        "city":"Gent",
        "lat":51.063615762849366,
        "lon":3.728997770977965,
        "name":"De Retraite",
        "street":"Sleepstraat 210",
        "tags":[
            "Eethuis",
            "Snack"
        ],
        "zip":9000
    },
    {
        "city":"Hasselt",
        "lat":50.92940356742352,
        "lon":5.334685907297525,
        "name":"De Sladerij",
        "street":"Havermarkt 39",
        "tags":[
            "Eethuis",
            "Veganvriendelijk"
        ],
        "zip":3500
    },
    {
        "city":"Brugge",
        "lat":51.2002605109335,
        "lon":3.2203932158765123,
        "name":"De Stoepa",
        "street":"Oostmeers 124",
        "tags":[
            "Eethuis"
        ],
        "zip":8000
    },
    {
        "city":"Gent",
        "lat":51.069904535497585,
        "lon":3.7729273271324053,
        "name":"De vegetarische kookstudio",
        "street":"Gustaaf Carelshof 6",
        "tags":[
            "Cateraar"
        ],
        "zip":9040
    },
    {
        "city":"Lommel",
        "lat":51.2282726575996,
        "lon":5.313494714883825,
        "name":"De Volksmacht",
        "street":"Kerkplein 15",
        "tags":[
            "Eethuis"
        ],
        "zip":3920
    },
    {
        "city":"Gent",
        "lat":51.04763845704453,
        "lon":3.728374541076049,
        "name":"De Vooruit",
        "street":"Sint-Pietersnieuwstraat 23",
        "tags":[
            "Eethuis"
        ],
        "zip":9000
    },
    {
        "city":"Gent",
        "lat":51.05497556267695,
        "lon":3.7270618847760844,
        "name":"De Warempel",
        "street":"Zandberg 8",
        "tags":[
            "Eethuis"
        ],
        "zip":9000
    },
    {
        "city":"Turnhout",
        "lat":51.323968445505095,
        "lon":4.943812652460775,
        "name":"De Weerelt",
        "street":"Warandestraat 17-19",
        "tags":[
            "Eethuis"
        ],
        "zip":2300
    },
    {
        "city":"Leuven",
        "lat":50.87953588065906,
        "lon":4.69846546642684,
        "name":"De Wiering",
        "street":"Wieringstraat 2",
        "tags":[
            "Snack"
        ],
        "zip":3000
    },
    {
        "city":"Westmeerbeek",
        "lat":51.07704094660703,
        "lon":4.785548539286743,
        "name":"De Wingerd",
        "street":"Grote Baan 68",
        "tags":[
            "Eethuis"
        ],
        "zip":2235
    },
    {
        "city":"Rumbeke",
        "lat":50.94534038957267,
        "lon":3.123968237998923,
        "name":"De Zalm",
        "street":"Grote Markt",
        "tags":[
            "Eethuis"
        ],
        "zip":8800
    },
    {
        "city":"Assebroek",
        "lat":51.202842623978896,
        "lon":3.25922261142153,
        "name":"De Zonnekeuken",
        "street":"Felix Timmermansstraat 24 8310 Assebroek",
        "tags":[
            "Cateraar"
        ],
        "zip":8310
    },
    {
        "city":"Ledeberg",
        "lat":51.04000758645978,
        "lon":3.753901684635687,
        "name":"De Zuidkant",
        "street":"Frederik Burvenichstraat 156",
        "tags":[
            "Eethuis"
        ],
        "zip":9050
    },
    {
        "city":"Gentbrugge",
        "lat":51.04000758645978,
        "lon":3.753901684635687,
        "name":"De Zuidkant",
        "street":"Frederik Burvenichstraat 156",
        "tags":[
            "Cateraar",
            "Eethuis",
            "100% vegetarisch",
            "EVA voordeel",
            "Veganvriendelijk"
        ],
        "zip":9050
    },
    {
        "city":"Kortrijk",
        "lat":50.830179658489094,
        "lon":3.2640930050527968,
        "name":"deDingen",
        "street":"Budastraat 12",
        "tags":[
            "Eethuis",
            "Snack"
        ],
        "zip":8500
    },
    {
        "city":"Brugge",
        "lat":51.20941102844163,
        "lon":3.226808547397451,
        "name":"Delaney's Irish Pub & Restaurant",
        "street":"Burg 8",
        "tags":[
            "Eethuis"
        ],
        "zip":8000
    },
    {
        "city":"Borgerhout",
        "lat":51.19787295798947,
        "lon":4.454895166188194,
        "name":"Delhi Delicious",
        "street":"Gitschotellei 379",
        "tags":[
            "Eethuis"
        ],
        "zip":2140
    },
    {
        "city":"Aalst",
        "lat":50.93794066176739,
        "lon":4.031459897754862,
        "name":"Deluxe Burger",
        "street":"Gentsestraat 45",
        "tags":[
            "Snack",
            "EVA voordeel"
        ],
        "zip":9300
    },
    {
        "city":"Mechelen",
        "lat":51.026205229417414,
        "lon":4.4770692737089295,
        "name":"Den Akker",
        "street":"Nauwstraat 11",
        "tags":[
            "Eethuis"
        ],
        "zip":2800
    },
    {
        "city":"Antwerpen",
        "lat":51.20495897698329,
        "lon":4.388803585888366,
        "name":"Den aperitief",
        "street":"Bolivarplaats 3",
        "tags":[
            "Snack"
        ],
        "zip":2000
    },
    {
        "city":"Zoersel",
        "lat":51.24914411863399,
        "lon":4.705024530417264,
        "name":"Den boer van Zoersel",
        "street":"Rodendijk 32",
        "tags":[
            "Eethuis"
        ],
        "zip":2980
    },
    {
        "city":"Ieper",
        "lat":50.853333517787384,
        "lon":2.886687416453987,
        "name":"Den Olifant",
        "street":"Diksmuidestraat 44",
        "tags":[
            "Eethuis"
        ],
        "zip":8900
    },
    {
        "city":"Brussel",
        "lat":50.84844564620362,
        "lon":4.345010079304438,
        "name":"Den Teepot",
        "street":"Kartuizersstraat 66",
        "tags":[
            "Eethuis",
            "100% vegetarisch"
        ],
        "zip":1000
    },
    {
        "city":"Leuven",
        "lat":50.87709112936612,
        "lon":4.701503134218559,
        "name":"Dewerf",
        "street":"Hogeschoolplein 5",
        "tags":[
            "Eethuis"
        ],
        "zip":3000
    },
    {
        "city":"Brussel",
        "lat":50.84856258178025,
        "lon":4.345379219311093,
        "name":"Divino",
        "street":"Kartuizersstraat 56",
        "tags":[
            "Eethuis"
        ],
        "zip":1000
    },
    {
        "city":"Sint-Martens-Latem",
        "lat":51.00472887263987,
        "lon":3.622415024662395,
        "name":"Dolce Far Niente",
        "street":"Kortrijksesteenweg 210",
        "tags":[
            "Eethuis"
        ],
        "zip":9830
    },
    {
        "city":"Brussel",
        "lat":50.82868889506306,
        "lon":4.370483615181949,
        "name":"Dolma",
        "street":"Elsense Steenweg 329",
        "tags":[
            "Eethuis",
            "100% vegetarisch",
            "Veganvriendelijk"
        ],
        "zip":1050
    },
    {
        "city":"Antwerpen",
        "lat":51.20597077271352,
        "lon":4.427022575267428,
        "name":"Dome",
        "street":"Grotehondstraat 2",
        "tags":[
            "Eethuis",
            "Veganvriendelijk"
        ],
        "zip":2018
    },
    {
        "city":"Brugge",
        "lat":51.2213974549231,
        "lon":3.2327708533533293,
        "name":"Du Phare",
        "street":"Sasplein 2",
        "tags":[
            "Eethuis"
        ],
        "zip":8000
    },
    {
        "city":"Gent",
        "lat":51.0517295011806,
        "lon":3.720317596684668,
        "name":"Eat Love Pizza",
        "street":"Ajuinlei 10a",
        "tags":[
            "Gastronomisch",
            "Veganvriendelijk"
        ],
        "zip":9000
    },
    {
        "city":"Borgerhout",
        "lat":51.2154675206214,
        "lon":4.434591117001991,
        "name":"Ecocaf\u00e9",
        "street":"Turnhoutsebaan 139",
        "tags":[
            "Eethuis"
        ],
        "zip":2140
    },
    {
        "city":"Gent",
        "lat":51.05859952847617,
        "lon":3.720721741140939,
        "name":"Eetcaf\u00e9 De Lieve",
        "street":"Sint-Margrietstraat 1",
        "tags":[
            "Eethuis"
        ],
        "zip":9000
    },
    {
        "city":"Gent",
        "lat":51.06348421886655,
        "lon":3.7116097205933865,
        "name":"Eetcafe Toreke",
        "street":"Vlotstraat 22",
        "tags":[
            "Eethuis"
        ],
        "zip":9000
    },
    {
        "city":"Leffinge",
        "lat":51.18641519018696,
        "lon":2.8995593814602523,
        "name":"Eethuis Kromme Elleboog",
        "street":"Torhoutsesteenweg 11",
        "tags":[
            "Eethuis"
        ],
        "zip":8432
    },
    {
        "city":"Sint-Niklaas",
        "lat":51.16536818460902,
        "lon":4.143261783916668,
        "name":"Eigenwijs",
        "street":"Ankerstraat 2",
        "tags":[
            "Eethuis"
        ],
        "zip":9100
    },
    {
        "city":"Gent",
        "lat":51.04980963747567,
        "lon":3.730911931803679,
        "name":"El Pincho",
        "street":"Brabantdam 82",
        "tags":[
            "Eethuis"
        ],
        "zip":9000
    },
    {
        "city":"Leuven",
        "lat":50.88171660522307,
        "lon":4.696590867683566,
        "name":"El Sombrero",
        "street":"Lei 25",
        "tags":[
            "Eethuis"
        ],
        "zip":3000
    },
    {
        "city":"Elsene",
        "lat":50.83879316612758,
        "lon":4.367474382602495,
        "name":"El Vergel",
        "street":"Troonstraat 39",
        "tags":[
            "Eethuis"
        ],
        "zip":1050
    },
    {
        "city":"Schaarbeek",
        "lat":50.86643576502582,
        "lon":4.36307039372256,
        "name":"Elan",
        "street":"Vooruitgangstraat 331",
        "tags":[
            "Eethuis"
        ],
        "zip":1030
    },
    {
        "city":"Schaarbeek",
        "lat":50.86643576502582,
        "lon":4.36307039372256,
        "name":"Elan",
        "street":"Vooruitgangstraat 331",
        "tags":[
            "Eethuis"
        ],
        "zip":1030
    },
    {
        "city":"Schaerbeek",
        "lat":50.86643576502582,
        "lon":4.36307039372256,
        "name":"Elan vzw",
        "street":"Vooruitgangstraat 331",
        "tags":[
            "Eethuis"
        ],
        "zip":1030
    },
    {
        "city":"Brussel",
        "lat":50.85083731396025,
        "lon":4.34747980817896,
        "name":"Ellis Gourmet Burger",
        "street":"Sint-Katelijneplein 4",
        "tags":[
            "Eethuis"
        ],
        "zip":1000
    },
    {
        "city":"Stevoort",
        "lat":50.923217800006185,
        "lon":5.230854482148161,
        "name":"Elsartmolen",
        "street":"Herkkantstraat 58",
        "tags":[
            "Eethuis"
        ],
        "zip":3512
    },
    {
        "city":"Antwerpen",
        "lat":51.221898264445265,
        "lon":4.404742145014601,
        "name":"Eten vol leven",
        "street":"Minderbroedersrui 52",
        "tags":[
            "Eethuis",
            "100% plantaardig",
            "EVA voordeel"
        ],
        "zip":2000
    },
    {
        "city":"Gent",
        "lat":51.033948256433966,
        "lon":3.7251685136088484,
        "name":"Ette-Ibibio",
        "street":"Zwijnaardsesteenweg 104",
        "tags":[
            "Eethuis"
        ],
        "zip":9000
    },
    {
        "city":"Antwerpen",
        "lat":51.2180782393116,
        "lon":4.404610328133859,
        "name":"Exki",
        "street":"Wiegstraat 7-9",
        "tags":[
            "Snack"
        ],
        "zip":2000
    },
    {
        "city":"Antwerpen",
        "lat":51.2180782393116,
        "lon":4.404610328133859,
        "name":"Exki",
        "street":"Wiegstraat 7-9",
        "tags":[
            "Snack"
        ],
        "zip":2000
    },
    {
        "city":"Gent",
        "lat":51.05639211175542,
        "lon":3.726372096399898,
        "name":"Exki",
        "street":"Sint Michielshelling 2",
        "tags":[
            "Snack"
        ],
        "zip":9000
    },
    {
        "city":"Antwerpen",
        "lat":51.2180782393116,
        "lon":4.404610328133859,
        "name":"Exki",
        "street":"Wiegstraat 7-9",
        "tags":[
            "Snack"
        ],
        "zip":2000
    },
    {
        "city":"Antwerpen",
        "lat":51.2180782393116,
        "lon":4.404610328133859,
        "name":"Exki",
        "street":"Wiegstraat 7-9",
        "tags":[
            "Snack"
        ],
        "zip":2000
    },
    {
        "city":"Sint-Niklaas",
        "lat":51.165286470611825,
        "lon":4.142833288545373,
        "name":"Express",
        "street":"Houtbriel 12",
        "tags":[
            "Snack"
        ],
        "zip":9100
    },
    {
        "city":"Hoboken",
        "lat":51.17820009127701,
        "lon":4.346448845262592,
        "name":"Extra Time",
        "street":"Louisalei 24",
        "tags":[
            "Eethuis",
            "Snack"
        ],
        "zip":2660
    },
    {
        "city":"Gent",
        "lat":51.049064298297196,
        "lon":3.7327189964071787,
        "name":"Faim Fatale",
        "street":"Zuidstationstraat 14",
        "tags":[
            "Eethuis"
        ],
        "zip":9000
    },
    {
        "city":"Gent",
        "lat":51.06196186780296,
        "lon":3.7273655987782717,
        "name":"Faki",
        "street":"Sleepstraat 112",
        "tags":[
            "Snack"
        ],
        "zip":9000
    },
    {
        "city":"Antwerpen",
        "lat":51.214424502708844,
        "lon":4.416915177720612,
        "name":"Falafel",
        "street":"Korte Herentalsestraat 60",
        "tags":[
            "Eethuis"
        ],
        "zip":2018
    },
    {
        "city":"Antwerpen",
        "lat":51.22379356477641,
        "lon":4.408565519566605,
        "name":"Falafel Beni",
        "street":"Lange Leemstraat 188",
        "tags":[
            "Eethuis",
            "100% vegetarisch"
        ],
        "zip":2000
    },
    {
        "city":"Brussel",
        "lat":50.84811357531697,
        "lon":4.3479495930019185,
        "name":"Fanny Thai",
        "street":"Jules van Praetstraat 36",
        "tags":[
            "Eethuis"
        ],
        "zip":1000
    },
    {
        "city":"Oostende",
        "lat":51.22954112828776,
        "lon":2.9236450741650115,
        "name":"Faro",
        "street":"Vindictivelaan 3b",
        "tags":[
            "Eethuis"
        ],
        "zip":8400
    },
    {
        "city":"Brussel",
        "lat":50.845120829405936,
        "lon":4.353034064751299,
        "name":"Feux de Bengale",
        "street":"Spoormakersstraat 69",
        "tags":[
            "Eethuis"
        ],
        "zip":1000
    },
    {
        "city":"Antwerpen",
        "lat":51.21590569051865,
        "lon":4.394719207317952,
        "name":"Fez",
        "street":"Kloosterstraat 52",
        "tags":[
            "Eethuis"
        ],
        "zip":2000
    },
    {
        "city":" Gent",
        "lat":51.05522737719995,
        "lon":3.7123816539463617,
        "name":"Fin de Faim",
        "street":"Hoogstraat 73",
        "tags":[
            "Eethuis"
        ],
        "zip":9000
    },
    {
        "city":"Gent",
        "lat":51.05322762384373,
        "lon":3.7312932716112006,
        "name":"Fin du Monde",
        "street":"Keizer Karelstraat 10",
        "tags":[
            "Eethuis"
        ],
        "zip":9000
    },
    {
        "city":"Antwerpen",
        "lat":51.208256880326395,
        "lon":4.393198038670664,
        "name":"Finjan",
        "street":"Graaf Van Hoornestraat 1",
        "tags":[
            "Snack",
            "EVA voordeel"
        ],
        "zip":2000
    },
    {
        "city":"Dendermonde",
        "lat":51.02690392378656,
        "lon":4.10023785178939,
        "name":"Flammazien",
        "street":"Brusselsestraat 72",
        "tags":[
            "Eethuis"
        ],
        "zip":9200
    },
    {
        "city":"Hasselt",
        "lat":50.93023257485071,
        "lon":5.338814248109191,
        "name":"Florian",
        "street":"Fruitmarkt 22",
        "tags":[
            "Eethuis"
        ],
        "zip":3500
    },
    {
        "city":"Rumbeke",
        "lat":50.94997280824011,
        "lon":3.1335662081581734,
        "name":"Fonduehuis La Paix",
        "street":"Ardooisesteenweg 74",
        "tags":[
            "Eethuis"
        ],
        "zip":8800
    },
    {
        "city":"Antwerpen",
        "lat":51.22248506091551,
        "lon":4.438723496947052,
        "name":"foodlovers companie",
        "street":"Somm\u00e9straat 45",
        "tags":[
            "Cateraar"
        ],
        "zip":2060
    },
    {
        "city":"Sterrebeek",
        "lat":50.85109241703316,
        "lon":4.504468088734993,
        "name":"foodshop.be",
        "street":"Hippodroomlaan 173",
        "tags":[
            "Cateraar"
        ],
        "zip":1933
    },
    {
        "city":"Brugge",
        "lat":51.2114667818947,
        "lon":3.224654362341255,
        "name":"Foresti\u00e8re",
        "street":"Academiestraat 11",
        "tags":[
            "Eethuis"
        ],
        "zip":8000
    },
    {
        "city":"Gent",
        "lat":51.0411171272722,
        "lon":3.7276223878700483,
        "name":"Frietcultuur",
        "street":"Kantienberg 28",
        "tags":[
            "Snack",
            "Veganvriendelijk"
        ],
        "zip":9000
    },
    {
        "city":"Brugge",
        "lat":51.212614189862634,
        "lon":3.239282140460991,
        "name":"Frituur & Veggie Eetboetiek Royal",
        "street":"Langestraat 181 A",
        "tags":[
            "Eethuis",
            "EVA voordeel"
        ],
        "zip":8000
    },
    {
        "city":"Gent",
        "lat":51.0562686060025,
        "lon":3.728456254403136,
        "name":"Frituur 'Dulle Friet'",
        "street":"Vlasmarkt 1",
        "tags":[
            "Snack"
        ],
        "zip":9000
    },
    {
        "city":"Wetteren",
        "lat":51.004851991011435,
        "lon":3.8789156556267157,
        "name":"Frituur 't Hoekske",
        "street":"Koningin Astridlaan 54",
        "tags":[
            "Snack"
        ],
        "zip":9230
    },
    {
        "city":"Zandvoorde",
        "lat":51.23168751185705,
        "lon":2.9146576244615217,
        "name":"Frituur Cannibal",
        "street":"Hertstraat 8",
        "tags":[
            "Snack"
        ],
        "zip":8400
    },
    {
        "city":"Zoerle-Parwijs",
        "lat":51.10629262711369,
        "lon":4.914887329788872,
        "name":"Frituur De Levensweg",
        "street":"Abdijstraat 4",
        "tags":[
            "Snack",
            "Veganvriendelijk"
        ],
        "zip":2260
    },
    {
        "city":"Londerzeel",
        "lat":51.002948517149235,
        "lon":4.290554430131844,
        "name":"Frituur De Linde",
        "street":"Linde 80",
        "tags":[
            "Eethuis"
        ],
        "zip":1840
    },
    {
        "city":"Lokeren",
        "lat":51.10365020528189,
        "lon":3.98837642485554,
        "name":"Frituur De Markt",
        "street":"Markt",
        "tags":[
            "Snack"
        ],
        "zip":9160
    },
    {
        "city":"Gent",
        "lat":51.04997330858101,
        "lon":3.716462761218731,
        "name":"Frituur De Papegaai",
        "street":"Annonciadenstraat 17",
        "tags":[
            "Snack",
            "EVA voordeel",
            "Veganvriendelijk"
        ],
        "zip":9000
    },
    {
        "city":"Heverlee",
        "lat":50.86708957411806,
        "lon":4.696971588965888,
        "name":"Frituur Den Dreef",
        "street":"Naamsesteenweg 58",
        "tags":[
            "Snack"
        ],
        "zip":3001
    },
    {
        "city":"Ledeberg",
        "lat":51.043324389325754,
        "lon":3.7590486098573557,
        "name":"Frituur Frietshop Gentbrugge",
        "street":"Tweekapellenstraat 2",
        "tags":[
            "Snack"
        ],
        "zip":9050
    },
    {
        "city":"Kortrijk",
        "lat":50.83240884172966,
        "lon":3.256431287611519,
        "name":"Frituur Groeninghe Veemarkt",
        "street":"Hoek Zwevegemsestraat - Veemarkt 1",
        "tags":[
            "Snack"
        ],
        "zip":8500
    },
    {
        "city":"Leuven",
        "lat":50.87608136395484,
        "lon":4.711868071894286,
        "name":"Frituur Movie",
        "street":"Burgemeestersstraat 42",
        "tags":[
            "Snack"
        ],
        "zip":3000
    },
    {
        "city":"Kortrijk",
        "lat":50.82558098671413,
        "lon":3.2645700197267153,
        "name":"Funky Food",
        "street":"Stationsstraat 9A",
        "tags":[
            "Eethuis"
        ],
        "zip":8500
    },
    {
        "city":"Antwerpen",
        "lat":51.219122158008474,
        "lon":4.400260074831732,
        "name":"Garden of India",
        "street":"Oude Koornmarkt 60",
        "tags":[
            "Eethuis",
            "Veganvriendelijk"
        ],
        "zip":2000
    },
    {
        "city":"Elsene",
        "lat":50.81479911344138,
        "lon":4.382714426739399,
        "name":"Garuda",
        "street":"Adolphe Buylstraat 25",
        "tags":[
            "Eethuis"
        ],
        "zip":1050
    },
    {
        "city":"Gent",
        "lat":51.0744881819794,
        "lon":3.7232129701089094,
        "name":"Gaston",
        "street":"wiedauwkaai 52",
        "tags":[
            "Eethuis"
        ],
        "zip":9000
    },
    {
        "city":"Gent",
        "lat":51.058059123002664,
        "lon":3.7238102431667857,
        "name":"Gate of India",
        "street":"Oudburg 1",
        "tags":[
            "Eethuis"
        ],
        "zip":9000
    },
    {
        "city":"Uitbergen",
        "lat":51.02688074570519,
        "lon":4.007358266471628,
        "name":"Gaver 15",
        "street":"Gaver 15",
        "tags":[
            "Eethuis"
        ],
        "zip":9290
    },
    {
        "city":"Rotselaar",
        "lat":50.93836219457909,
        "lon":4.735016925792405,
        "name":"Geert Groffen",
        "street":"Aarschotsesteenweg 10",
        "tags":[
            "Eethuis",
            "EVA voordeel"
        ],
        "zip":3110
    },
    {
        "city":"Brussel",
        "lat":50.82868217285996,
        "lon":4.291920394993346,
        "name":"Gourmet d'Asie",
        "street":"Van Arteveldestraat 14",
        "tags":[
            "Eethuis"
        ],
        "zip":1000
    },
    {
        "city":"Mechelen",
        "lat":51.027491092169726,
        "lon":4.4766018795222555,
        "name":"Graspoort",
        "street":"Begijnenstraat 28",
        "tags":[
            "Eethuis"
        ],
        "zip":2800
    },
    {
        "city":"Wetteren",
        "lat":51.00173407420266,
        "lon":3.881412875357365,
        "name":"Green Note",
        "street":"Nieuwstraat 1",
        "tags":[
            "Eethuis",
            "Snack"
        ],
        "zip":9230
    },
    {
        "city":"Kessel-Lo",
        "lat":50.8835043071787,
        "lon":4.718757710886484,
        "name":"Green Palace",
        "street":"Diestsesteenweg 66",
        "tags":[
            "Eethuis"
        ],
        "zip":3010
    },
    {
        "city":"Mechelen",
        "lat":51.03029082435245,
        "lon":4.490692335980145,
        "name":"Greenfield 2",
        "street":"Nekkerspoelstraat 5",
        "tags":[],
        "zip":2800
    },
    {
        "city":"Gent",
        "lat":51.04761007562845,
        "lon":3.7215297353355012,
        "name":"Greenway",
        "street":"Nederkouter 42",
        "tags":[
            "Eethuis",
            "Snack",
            "100% vegetarisch",
            "Veganvriendelijk"
        ],
        "zip":9000
    },
    {
        "city":"Antwerpen",
        "lat":51.219193931602796,
        "lon":4.400746758148396,
        "name":"Greenway Antwerpen",
        "street":"Groenplaats 6",
        "tags":[
            "Eethuis",
            "Snack",
            "100% vegetarisch",
            "Veganvriendelijk"
        ],
        "zip":2000
    },
    {
        "city":"Sint - Gillis",
        "lat":50.83601145668405,
        "lon":4.337648395616994,
        "name":"Greenway Brussel-Zuid",
        "street":"Fonsnylaan 46 bus 18",
        "tags":[
            "Eethuis",
            "Snack",
            "100% vegetarisch",
            "EVA voordeel",
            "Veganvriendelijk"
        ],
        "zip":1060
    },
    {
        "city":"Leuven",
        "lat":50.87905700241857,
        "lon":4.699328862819362,
        "name":"Greenway Leuven",
        "street":"Parijsstraat 12",
        "tags":[
            "Eethuis",
            "Snack",
            "100% vegetarisch",
            "EVA voordeel",
            "Veganvriendelijk"
        ],
        "zip":3000
    },
    {
        "city":"Sint-Niklaas",
        "lat":51.16178014761566,
        "lon":4.142435641787203,
        "name":"Grenoble",
        "street":"Kokkelbeekstraat 34",
        "tags":[
            "Eethuis",
            "100% vegetarisch"
        ],
        "zip":9100
    },
    {
        "city":"Gent",
        "lat":51.06096691378879,
        "lon":3.7262380317349937,
        "name":"G\u00fclhan",
        "street":"Sleepstraat 70",
        "tags":[
            "Eethuis"
        ],
        "zip":9000
    },
    {
        "city":"Gent",
        "lat":51.05639211175542,
        "lon":3.726372096399898,
        "name":"Gusto",
        "street":"Sint Pietersnieuwstraat 116",
        "tags":[
            "Eethuis"
        ],
        "zip":9000
    },
    {
        "city":"Borgerhout",
        "lat":51.21233687191453,
        "lon":4.439194682563386,
        "name":"Hacienda POPULAR",
        "street":"Prins Leopoldstraat 51",
        "tags":[
            "Cateraar"
        ],
        "zip":2140
    },
    {
        "city":"Hasselt",
        "lat":50.93334085818825,
        "lon":5.346674834788411,
        "name":"Healthyfoods, samen met De Levensboom te Hasselt",
        "street":"Molenstraat 33",
        "tags":[
            "Cateraar"
        ],
        "zip":3500
    },
    {
        "city":"Sint-Jans-Molenbeek",
        "lat":50.85176149094773,
        "lon":4.3392145001728375,
        "name":"Heksenketel",
        "street":"Henegouwenkaai 29",
        "tags":[
            "Cateraar",
            "Eethuis"
        ],
        "zip":1080
    },
    {
        "city":"Brussel",
        "lat":50.84982261839919,
        "lon":4.355361407114638,
        "name":"H\u00e9misph\u00e8res",
        "street":"Leopoldstraat 29",
        "tags":[
            "Eethuis"
        ],
        "zip":1000
    },
    {
        "city":"Brussel",
        "lat":50.853039284252496,
        "lon":4.345022027523742,
        "name":"Henri",
        "street":"Vlaamsesteenweg 113",
        "tags":[
            "Eethuis"
        ],
        "zip":1000
    },
    {
        "city":"Brugge",
        "lat":51.20375168897651,
        "lon":3.215184426696205,
        "name":"Het andere idee",
        "street":"Hauwerstraat 9",
        "tags":[
            "Eethuis"
        ],
        "zip":8000
    },
    {
        "city":"Leuven",
        "lat":50.87859858614858,
        "lon":4.699311421005059,
        "name":"Het Dagelijks Brood/ Le Pain Quotidien",
        "street":"Parijsstraat 35",
        "tags":[
            "Eethuis"
        ],
        "zip":3000
    },
    {
        "city":"Zutendaal",
        "lat":50.91606665690673,
        "lon":5.589935543329456,
        "name":"Het Engelenhofke",
        "street":"Schansstraat 15",
        "tags":[
            "Cateraar"
        ],
        "zip":3690
    },
    {
        "city":"Sint-Niklaas",
        "lat":51.16813931117519,
        "lon":4.144649561935037,
        "name":"Het Gevoel",
        "street":"Regentieplein 53",
        "tags":[
            "Eethuis"
        ],
        "zip":9100
    },
    {
        "city":"Oud-Turnhout",
        "lat":51.31746962337766,
        "lon":4.981484180934898,
        "name":"Het Herenhuis",
        "street":"Dorp 1",
        "tags":[
            "Eethuis"
        ],
        "zip":2360
    },
    {
        "city":"Herent",
        "lat":50.914398843682214,
        "lon":4.656861588439386,
        "name":"Het huis van Mihr",
        "street":"Mechelsesteenweg 690",
        "tags":[
            "Cateraar"
        ],
        "zip":3020
    },
    {
        "city":"Antwerpen",
        "lat":51.22285948037097,
        "lon":4.406446253347435,
        "name":"Het Lastig Portret",
        "street":"Blindestraat 1",
        "tags":[
            "Eethuis"
        ],
        "zip":2000
    },
    {
        "city":"Hasselt",
        "lat":50.932096071763056,
        "lon":5.337415938433967,
        "name":"Het Magazijn",
        "street":"Minderbroedersstraat 9",
        "tags":[
            "Eethuis"
        ],
        "zip":3500
    },
    {
        "city":"Gent",
        "lat":51.068919237515594,
        "lon":3.6919158417157485,
        "name":"Het Poorthuis",
        "street":"Kempstraat 151",
        "tags":[
            "Eethuis"
        ],
        "zip":9000
    },
    {
        "city":"Gent",
        "lat":51.068803941669806,
        "lon":3.6921885875107683,
        "name":"Het Restaurant",
        "street":"Kempstraat 150",
        "tags":[
            "Eethuis"
        ],
        "zip":9000
    },
    {
        "city":"Aast",
        "lat":50.937550288829634,
        "lon":4.030125362594947,
        "name":"Het Verschil",
        "street":"Gentsestraat 70",
        "tags":[
            "Eethuis",
            "EVA voordeel"
        ],
        "zip":9300
    },
    {
        "city":"Beringen",
        "lat":51.04812439234235,
        "lon":5.2267394646377605,
        "name":"Het Voorste Huis",
        "street":"Koerselsesteenweg 15",
        "tags":[
            "Eethuis",
            "Snack"
        ],
        "zip":3580
    },
    {
        "city":"Brussel",
        "lat":50.83677780473699,
        "lon":4.348053816596991,
        "name":"Het Warm Water",
        "street":"Vossenstraat 25",
        "tags":[
            "Eethuis",
            "EVA voordeel"
        ],
        "zip":1000
    },
    {
        "city":"Leuven",
        "lat":50.88186460791657,
        "lon":4.7139140278935345,
        "name":"Himalaya Restaurant",
        "street":"Tiensevest 14",
        "tags":[],
        "zip":3000
    },
    {
        "city":"Leuven",
        "lat":50.87664412139852,
        "lon":4.700633241205477,
        "name":"Himalaya Restaurant",
        "street":"Naamsestraat 51",
        "tags":[
            "Eethuis"
        ],
        "zip":3000
    },
    {
        "city":"Kruishoutem",
        "lat":50.90357023466016,
        "lon":3.509557654327995,
        "name":"Hof Van Cleve",
        "street":"Riemegemstraat 1",
        "tags":[
            "Gastronomisch"
        ],
        "zip":9770
    },
    {
        "city":"Antwerpen",
        "lat":51.21268842172594,
        "lon":4.4200044837452594,
        "name":"Hoffy's",
        "street":"Lange Kievitstraat 52",
        "tags":[
            "Eethuis"
        ],
        "zip":2018
    },
    {
        "city":"Stevoort",
        "lat":50.912327198728484,
        "lon":5.24952446244104,
        "name":"Home Cooking",
        "street":"Pater Raskinstraat 18",
        "tags":[
            "Cateraar"
        ],
        "zip":3512
    },
    {
        "city":"Brussel",
        "lat":50.848428124301556,
        "lon":4.347466663256457,
        "name":"Hong Hoa",
        "street":"Karperbrug 10",
        "tags":[
            "Eethuis"
        ],
        "zip":1000
    },
    {
        "city":"Gent - Ledeberg",
        "lat":51.04115920502852,
        "lon":3.7421373097390997,
        "name":"Hot Falafel",
        "street":"Brusselsesteenweg 17a",
        "tags":[
            "Snack",
            "EVA voordeel",
            "Veganvriendelijk"
        ],
        "zip":9050
    },
    {
        "city":"Leuven",
        "lat":50.87997939337771,
        "lon":4.697388661367615,
        "name":"House Of Lalibela",
        "street":"Brusselsestraat 59",
        "tags":[
            "Eethuis"
        ],
        "zip":3000
    },
    {
        "city":"Brussel",
        "lat":50.84316001387633,
        "lon":4.346063342907322,
        "name":"Houtsiplou",
        "street":"Rouppeplein 9",
        "tags":[
            "Eethuis"
        ],
        "zip":1000
    },
    {
        "city":"Jette",
        "lat":50.86860421523584,
        "lon":4.327228538209357,
        "name":"Humus Botanical Gastronomy",
        "street":"Gielelaan 20",
        "tags":[
            "Eethuis"
        ],
        "zip":1090
    },
    {
        "city":"Antwerpen",
        "lat":51.21500620558345,
        "lon":4.397437872718811,
        "name":"I Famosi",
        "street":"Steenbergstraat 11",
        "tags":[
            "Eethuis"
        ],
        "zip":2000
    },
    {
        "city":"Brussel",
        "lat":50.84799659284419,
        "lon":4.347268056154273,
        "name":"i latini",
        "street":"Place Saint Cath\u00e9rine 1a - 2",
        "tags":[
            "Cateraar",
            "Eethuis"
        ],
        "zip":1000
    },
    {
        "city":"Antwerpen",
        "lat":51.21588054719278,
        "lon":4.4171027558360985,
        "name":"I Ro Ha",
        "street":"Lange Herentalsestraat 12",
        "tags":[
            "Eethuis"
        ],
        "zip":2018
    },
    {
        "city":"Mechelen",
        "lat":51.029520374950444,
        "lon":4.479001388420192,
        "name":"Il Cardinale",
        "street":"Wollemarkt 22-24",
        "tags":[
            "Eethuis"
        ],
        "zip":2800
    },
    {
        "city":"Gent",
        "lat":51.05727305807972,
        "lon":3.7230793497768255,
        "name":"Il Cortile",
        "street":"Kraanlei 53",
        "tags":[
            "Eethuis"
        ],
        "zip":9000
    },
    {
        "city":"Gent",
        "lat":51.059359504931976,
        "lon":3.729854707819251,
        "name":"Il Mezzogiorno",
        "street":"Baudelokaai 17",
        "tags":[
            "Cateraar",
            "Eethuis"
        ],
        "zip":9000
    },
    {
        "city":"Leuven",
        "lat":50.87866135111002,
        "lon":4.69936870014012,
        "name":"Il Pastaio",
        "street":"Parijsstraat 33",
        "tags":[
            "Eethuis"
        ],
        "zip":3000
    },
    {
        "city":"Antwerpen",
        "lat":51.21793452191149,
        "lon":4.404295343314858,
        "name":"Il Pastaiolo",
        "street":"Wiegstraat 18",
        "tags":[
            "Cateraar",
            "Eethuis"
        ],
        "zip":2000
    },
    {
        "city":"Hasselt",
        "lat":50.92974336309734,
        "lon":5.340354725960681,
        "name":"Il Pasticcio",
        "street":"Maastrichterstraat 72",
        "tags":[
            "Cateraar",
            "Eethuis"
        ],
        "zip":3500
    },
    {
        "city":"Leuven",
        "lat":50.88600235645571,
        "lon":4.706867235540431,
        "name":"Il Piccantino",
        "street":"Drie Engelenberg 4",
        "tags":[
            "Eethuis"
        ],
        "zip":3000
    },
    {
        "city":" Gent",
        "lat":51.067233324251006,
        "lon":3.7330429241229206,
        "name":"Illie Mangaro",
        "street":"Sassevaartstraat 47",
        "tags":[
            "Cateraar",
            "Eethuis"
        ],
        "zip":9000
    },
    {
        "city":"Nieuwerkerken",
        "lat":50.917123499529836,
        "lon":4.075977980901107,
        "name":"In 't Dik Pak",
        "street":"Pater Rasschaertlaan 8",
        "tags":[
            "Snack"
        ],
        "zip":9320
    },
    {
        "city":"Aalst",
        "lat":50.93768438984572,
        "lon":4.029868310309208,
        "name":"In de Maeltydt",
        "street":"Gentsestraat 91",
        "tags":[
            "Eethuis",
            "EVA voordeel"
        ],
        "zip":9300
    },
    {
        "city":"Leuven",
        "lat":50.87892260336814,
        "lon":4.69917161367462,
        "name":"Inari",
        "street":"Parijsstraat 18",
        "tags":[
            "Eethuis"
        ],
        "zip":3000
    },
    {
        "city":"Brugge",
        "lat":51.20288011312688,
        "lon":3.2263387295926638,
        "name":"Indian Tandoori",
        "street":"Oude Gentweg 11",
        "tags":[
            "Eethuis"
        ],
        "zip":8000
    },
    {
        "city":"Gent",
        "lat":51.05794734170448,
        "lon":3.7448083239870518,
        "name":"Inner Kitchen",
        "street":"Land Van Waaslaan 78a",
        "tags":[
            "Cateraar",
            "Eethuis",
            "100% vegetarisch",
            "EVA voordeel",
            "Veganvriendelijk"
        ],
        "zip":9000
    },
    {
        "city":"Antwerpen",
        "lat":51.207303696320885,
        "lon":4.395057708984547,
        "name":"Izumi",
        "street":"Beeldhouwersstraat 44",
        "tags":[
            "Eethuis"
        ],
        "zip":2000
    },
    {
        "city":"Gent",
        "lat":51.0495911327427,
        "lon":3.73040149559671,
        "name":"Jackie's Bagelbar",
        "street":"Vlaanderenstraat 84",
        "tags":[
            "Snack"
        ],
        "zip":9000
    },
    {
        "city":"Vlekkem",
        "lat":50.92959593354456,
        "lon":3.962345538600295,
        "name":"Jajo",
        "street":"Oudenaardsesteenweg 318",
        "tags":[
            "Snack"
        ],
        "zip":9420
    },
    {
        "city":"Zottegem",
        "lat":50.86904406629474,
        "lon":3.8114425136054497,
        "name":"Jeera Thai",
        "street":"Zavel 23",
        "tags":[
            "Eethuis"
        ],
        "zip":9620
    },
    {
        "city":"Gent",
        "lat":51.03895460372439,
        "lon":3.7316585208185273,
        "name":"Jilles",
        "street":"Tentoonstellingslaan 165",
        "tags":[
            "Eethuis"
        ],
        "zip":9000
    },
    {
        "city":"Gent",
        "lat":51.03997870051699,
        "lon":3.734867014913963,
        "name":"Jour de f\u00eate",
        "street":"Gustaaf Callierlaan 233",
        "tags":[
            "Cateraar",
            "Eethuis"
        ],
        "zip":9000
    },
    {
        "city":"Brussel",
        "lat":50.84569514732187,
        "lon":4.34654492358794,
        "name":"Jour De F\u00eate",
        "street":"Anspachlaan 181",
        "tags":[
            "Eethuis"
        ],
        "zip":1000
    },
    {
        "city":"Merksem",
        "lat":51.25240195431594,
        "lon":4.459522843263288,
        "name":"Joy's Villa",
        "street":"Bredabaan 831",
        "tags":[
            "Eethuis",
            "Veganvriendelijk"
        ],
        "zip":2170
    },
    {
        "city":"Antwerpen",
        "lat":51.21670426391802,
        "lon":4.400315653146848,
        "name":"Juliette",
        "street":"Ijzerenwaag 4",
        "tags":[
            "Eethuis"
        ],
        "zip":2000
    },
    {
        "city":"Gent",
        "lat":51.02551297917851,
        "lon":3.7067254802806566,
        "name":"Just like your mom",
        "street":"Maaltebruggestraat 294",
        "tags":[
            "Cateraar"
        ],
        "zip":9000
    },
    {
        "city":"Antwerpen",
        "lat":51.21523949869058,
        "lon":4.39902660102489,
        "name":"Kaf\u00e9 Puur",
        "street":"Schoytestraat 1",
        "tags":[
            "Snack",
            "Veganvriendelijk"
        ],
        "zip":2000
    },
    {
        "city":"Leuven",
        "lat":50.87891212965754,
        "lon":4.6996972807175075,
        "name":"Kalypta",
        "street":"Parijsstraat 21",
        "tags":[
            "Eethuis"
        ],
        "zip":3000
    },
    {
        "city":"Sint-Gillis",
        "lat":50.82990730109313,
        "lon":4.336687133580912,
        "name":"Kamilou",
        "street":"Fernand Bernierstraat 15",
        "tags":[
            "Cateraar",
            "Eethuis",
            "Veganvriendelijk"
        ],
        "zip":1060
    },
    {
        "city":"Vorst",
        "lat":50.82156215011329,
        "lon":4.3274538729687055,
        "name":"Kamilou",
        "street":"Van Volxemlaan 354",
        "tags":[
            "Eethuis",
            "Veganvriendelijk"
        ],
        "zip":1190
    },
    {
        "city":"Antwerpen",
        "lat":51.206175295081415,
        "lon":4.431301154838009,
        "name":"Kamu",
        "street":"Draakstraat 28",
        "tags":[
            "Eethuis"
        ],
        "zip":2018
    },
    {
        "city":"Schelderode",
        "lat":51.015846072611325,
        "lon":3.7525226366222264,
        "name":"Kanazawa",
        "street":"Hundelgemsesteenweg 242",
        "tags":[
            "Eethuis"
        ],
        "zip":9820
    },
    {
        "city":"Sint-Niklaas",
        "lat":51.167951389642106,
        "lon":4.145093671691452,
        "name":"Kantine",
        "street":"Regentieplein 1",
        "tags":[
            "Snack"
        ],
        "zip":9100
    },
    {
        "city":"Gent",
        "lat":51.05284671778664,
        "lon":3.725707589807837,
        "name":"Kapittelhuis",
        "street":"Lange Kruisstraat 4",
        "tags":[
            "Eethuis"
        ],
        "zip":9000
    },
    {
        "city":"Brussel",
        "lat":50.851025577687416,
        "lon":4.344724801138332,
        "name":"Kasbah",
        "street":"Dansaertstraat 20",
        "tags":[
            "Eethuis"
        ],
        "zip":1000
    },
    {
        "city":"Sint-Niklaas",
        "lat":51.16286546688599,
        "lon":4.145961398325051,
        "name":"Kasteel Walburg",
        "street":"Walburgstraat 35",
        "tags":[
            "Cateraar",
            "Eethuis"
        ],
        "zip":9100
    },
    {
        "city":"Puurs",
        "lat":51.070280613093374,
        "lon":4.297790486237957,
        "name":"Kers naast de taart",
        "street":"Winkelveld 4",
        "tags":[
            "Cateraar"
        ],
        "zip":2870
    },
    {
        "city":"Sinaai-Waas",
        "lat":51.15544582068004,
        "lon":4.000390522369852,
        "name":"Keyserhof",
        "street":"Keizerstraat 69",
        "tags":[
            "Eethuis"
        ],
        "zip":9112
    },
    {
        "city":"Elsene",
        "lat":50.82519195134125,
        "lon":4.370696327832227,
        "name":"Kifkif",
        "street":"Biarritzsquare 1",
        "tags":[
            "Eethuis"
        ],
        "zip":1050
    },
    {
        "city":"Antwerpen",
        "lat":51.21798284157819,
        "lon":4.419437886094201,
        "name":"King of Bombay",
        "street":"Breydelstraat 23",
        "tags":[
            "Eethuis"
        ],
        "zip":2018
    },
    {
        "city":"Antwerpen",
        "lat":51.221818484948905,
        "lon":4.400948987992742,
        "name":"Kioku",
        "street":"Oude Vaartplaats 47",
        "tags":[
            "Eethuis"
        ],
        "zip":2000
    },
    {
        "city":"Wondelgem",
        "lat":51.08636007647652,
        "lon":3.7064787126627468,
        "name":"Koe-vert",
        "street":"Botestraat 61",
        "tags":[
            "Eethuis"
        ],
        "zip":9032
    },
    {
        "city":"Sint-Niklaas",
        "lat":51.16226863306464,
        "lon":4.1393740715322975,
        "name":"Koek en Ei",
        "street":"Hendrik Heymanplein 5",
        "tags":[],
        "zip":9100
    },
    {
        "city":"Koekelare",
        "lat":51.08765613470771,
        "lon":2.96608565942793,
        "name":"Kok aan huis Paul De Soete",
        "street":"Sterrestraat 140 B",
        "tags":[
            "Cateraar"
        ],
        "zip":8680
    },
    {
        "city":"Sint-Gillis-bij-Dendermonde",
        "lat":51.03059487193046,
        "lon":4.098677178133559,
        "name":"Kokarde",
        "street":"Grote Markt 9 - 10",
        "tags":[
            "Eethuis"
        ],
        "zip":9200
    },
    {
        "city":"Brussel",
        "lat":50.85525247580251,
        "lon":4.357376612196755,
        "name":"Kom Kom",
        "street":"Kruidtuinlaan 13",
        "tags":[
            "Eethuis"
        ],
        "zip":1000
    },
    {
        "city":"Antwerpen",
        "lat":51.20874672056236,
        "lon":4.429916614739037,
        "name":"Kom Sjee Twa",
        "street":"Walvisstraat 1",
        "tags":[
            "Eethuis"
        ],
        "zip":2018
    },
    {
        "city":"Gent",
        "lat":51.05324128151047,
        "lon":3.7304943843050893,
        "name":"Komkommertijd",
        "street":"Reep 14",
        "tags":[
            "Eethuis",
            "100% plantaardig",
            "100% vegetarisch",
            "EVA voordeel",
            "Veganvriendelijk"
        ],
        "zip":9000
    },
    {
        "city":"Hasselt",
        "lat":50.930026361350606,
        "lon":5.339834236834965,
        "name":"Kookpunt",
        "street":"Hemelrijk 13",
        "tags":[
            "Eethuis"
        ],
        "zip":3500
    },
    {
        "city":"Gent",
        "lat":51.055166746112114,
        "lon":3.7242066416206705,
        "name":"Korenhuis",
        "street":"Hoogpoort 35",
        "tags":[
            "Eethuis"
        ],
        "zip":9000
    },
    {
        "city":"Gent",
        "lat":51.05564071632214,
        "lon":3.720477406341214,
        "name":"Korenlei Twee",
        "street":"Korenlei 2",
        "tags":[
            "Eethuis",
            "Veganvriendelijk"
        ],
        "zip":9000
    },
    {
        "city":"Mechelen",
        "lat":51.027180306723935,
        "lon":4.482060471114452,
        "name":"Koya",
        "street":"D\u00e9sir\u00e9 Boucherystraat 16",
        "tags":[
            "Eethuis"
        ],
        "zip":2800
    },
    {
        "city":"Elsene",
        "lat":50.8360692801947,
        "lon":4.364365465439404,
        "name":"L'Ultime Atome",
        "street":"Sint Bonifaasstraat 14",
        "tags":[
            "Eethuis"
        ],
        "zip":1050
    },
    {
        "city":"Elsene",
        "lat":50.8360692801947,
        "lon":4.364365465439404,
        "name":"L'Ultime Atome",
        "street":"Sint Bonifaasstraat 14",
        "tags":[
            "Eethuis"
        ],
        "zip":1050
    },
    {
        "city":"Brussel",
        "lat":50.851025577687416,
        "lon":4.344724801138332,
        "name":"La Belle Equipe",
        "street":"Dansaertstraat 202",
        "tags":[
            "Eethuis"
        ],
        "zip":1000
    },
    {
        "city":"Mechelen",
        "lat":51.02323835189125,
        "lon":4.4776039767927704,
        "name":"La Boya",
        "street":"Gebroeders Verhaegenstraat 16",
        "tags":[
            "Eethuis"
        ],
        "zip":2800
    },
    {
        "city":"Leuven",
        "lat":50.87828913880125,
        "lon":4.703813500197568,
        "name":"La Cucaracha",
        "street":"Tiensestraat 21",
        "tags":[
            "Eethuis"
        ],
        "zip":3000
    },
    {
        "city":"Brussel",
        "lat":50.90367718067191,
        "lon":4.388812636106314,
        "name":"La Ferme nos Pilifs ASBL",
        "street":"Trassersweg 347",
        "tags":[
            "Eethuis",
            "EVA voordeel"
        ],
        "zip":1120
    },
    {
        "city":"Aaslt",
        "lat":50.93817167250907,
        "lon":4.040037219077624,
        "name":"La Locanda",
        "street":"Kerkstraat 14",
        "tags":[
            "Eethuis"
        ],
        "zip":9300
    },
    {
        "city":"Mechelen",
        "lat":51.02433638190193,
        "lon":4.476124211332823,
        "name":"La Loggia",
        "street":"Korenmarkt 37",
        "tags":[
            "Eethuis",
            "EVA voordeel"
        ],
        "zip":2800
    },
    {
        "city":"Deinze",
        "lat":50.97812741754083,
        "lon":3.5288259864714053,
        "name":"La Luna",
        "street":"Kortrijkstraat 43",
        "tags":[
            "Eethuis",
            "Veganvriendelijk"
        ],
        "zip":9800
    },
    {
        "city":"Sint-Niklaas",
        "lat":51.163580711179215,
        "lon":4.139238982574633,
        "name":"La Luna Rossa",
        "street":"Nieuwstraat 6",
        "tags":[
            "Eethuis"
        ],
        "zip":9100
    },
    {
        "city":"Brussel",
        "lat":50.84723301386868,
        "lon":4.350505879122635,
        "name":"La Maison des Cr\u00eapes",
        "street":"Zuidstraat 11",
        "tags":[
            "Eethuis"
        ],
        "zip":1000
    },
    {
        "city":"Sint-Gillis",
        "lat":50.8303947836212,
        "lon":4.345600899331678,
        "name":"La maison du peuple",
        "street":"Sint-Gillisvoorplein 37A",
        "tags":[
            "Eethuis"
        ],
        "zip":1060
    },
    {
        "city":"Gent",
        "lat":51.05758914345411,
        "lon":3.7217056618659545,
        "name":"La Malcontenta",
        "street":"Haringsteeg 7 - 9",
        "tags":[
            "Eethuis",
            "Veganvriendelijk"
        ],
        "zip":9000
    },
    {
        "city":"Brussel",
        "lat":50.83504261426899,
        "lon":4.346862106535629,
        "name":"La Marmite",
        "street":"Hoogstraat 304",
        "tags":[
            "Eethuis"
        ],
        "zip":1000
    },
    {
        "city":"Brussel",
        "lat":50.847862473722664,
        "lon":4.351854614231369,
        "name":"La Papaye Verte",
        "street":"Rue A. Dansaertstraat 53",
        "tags":[
            "Eethuis"
        ],
        "zip":1000
    },
    {
        "city":"Gent",
        "lat":51.044426871109124,
        "lon":3.726279455650121,
        "name":"La Perla",
        "street":"Sint-Pietersnieuwstraat 212",
        "tags":[
            "Eethuis"
        ],
        "zip":9000
    },
    {
        "city":"Antwerpen",
        "lat":51.21171608997299,
        "lon":4.398838225408162,
        "name":"La Primavera",
        "street":"Kronenburgstraat 82",
        "tags":[
            "Eethuis"
        ],
        "zip":2000
    },
    {
        "city":"Gent",
        "lat":51.04980963747567,
        "lon":3.730911931803679,
        "name":"La Resistenza",
        "street":"Brabantdam 82",
        "tags":[
            "Eethuis",
            "Snack"
        ],
        "zip":9000
    },
    {
        "city":"Leuven",
        "lat":50.87583069550803,
        "lon":4.708427831250533,
        "name":"La Rotonda",
        "street":"Tiensestraat 121",
        "tags":[
            "Eethuis"
        ],
        "zip":3000
    },
    {
        "city":"Veldwezelt",
        "lat":50.915038315648324,
        "lon":5.668130085320723,
        "name":"La Source",
        "street":"Paalsteenlaan 90",
        "tags":[
            "Eethuis"
        ],
        "zip":3620
    },
    {
        "city":"Herenthout",
        "lat":51.14007986984787,
        "lon":4.7539337647395605,
        "name":"La Taperia",
        "street":"Nijlense steenweg 12",
        "tags":[
            "Eethuis",
            "Snack",
            "Veganvriendelijk"
        ],
        "zip":2270
    },
    {
        "city":"Etterbeek",
        "lat":50.838915152961064,
        "lon":4.398182457808902,
        "name":"La Terrasse",
        "street":"Keltenlaan 1",
        "tags":[
            "Eethuis"
        ],
        "zip":1040
    },
    {
        "city":"Elsene",
        "lat":50.8269807379716,
        "lon":4.3618255648479245,
        "name":"La Tsampa",
        "street":"Livornostraat 109",
        "tags":[
            "Eethuis",
            "100% vegetarisch",
            "Veganvriendelijk"
        ],
        "zip":1050
    },
    {
        "city":"Gent",
        "lat":51.05727778093694,
        "lon":3.7305534966261686,
        "name":"La Vita Nova",
        "street":"Steendam 51",
        "tags":[
            "Eethuis"
        ],
        "zip":9000
    },
    {
        "city":"Antwerpen",
        "lat":51.1918264949031,
        "lon":4.390628705180052,
        "name":"Lara kookt voor u",
        "street":"Tentoonstellingslaan 42",
        "tags":[
            "Cateraar"
        ],
        "zip":2020
    },
    {
        "city":"Antwerpen",
        "lat":51.19952645612943,
        "lon":4.403508481151046,
        "name":"Lara kookt voor u",
        "street":"Van Schoonbekestraat 158",
        "tags":[
            "Cateraar",
            "Eethuis"
        ],
        "zip":2018
    },
    {
        "city":"Schaarbeek",
        "lat":50.85035063393803,
        "lon":4.394824281417483,
        "name":"Le caveau du Max",
        "street":"Emile Maxlaan 87",
        "tags":[
            "Eethuis",
            "Veganvriendelijk"
        ],
        "zip":1030
    },
    {
        "city":"Brussel",
        "lat":50.851025577687416,
        "lon":4.344724801138332,
        "name":"Le Pain Quotidien",
        "street":"Dansaertstraat 16A",
        "tags":[
            "Snack"
        ],
        "zip":1000
    },
    {
        "city":"Brugge",
        "lat":51.20951058486947,
        "lon":3.22594742244284,
        "name":"Le Pain Quotidien",
        "street":"Philip Stockstraat 21",
        "tags":[
            "Eethuis"
        ],
        "zip":8000
    },
    {
        "city":"Antwerpen",
        "lat":51.22379356477641,
        "lon":4.408565519566605,
        "name":"Le Pain Quotidien",
        "street":"Lange Kievitstraat 107",
        "tags":[
            "Snack"
        ],
        "zip":2000
    },
    {
        "city":"Gent",
        "lat":51.05162201164494,
        "lon":3.725310800592973,
        "name":"Le Pain Quotidien",
        "street":"Kalandeberg 10",
        "tags":[
            "Eethuis",
            "Veganvriendelijk"
        ],
        "zip":9000
    },
    {
        "city":"Antwerpen",
        "lat":51.204116827359314,
        "lon":4.41166760486619,
        "name":"Le Pain Quotidien",
        "street":"Mechelsesteenweg 45-47",
        "tags":[
            "Snack"
        ],
        "zip":2000
    },
    {
        "city":"Antwerpen",
        "lat":51.21767517342334,
        "lon":4.399715208541481,
        "name":"Le Pain Quotidien",
        "street":"Steenhouwersvest 48",
        "tags":[
            "Snack"
        ],
        "zip":2000
    },
    {
        "city":"Antwerpen",
        "lat":51.21767517342334,
        "lon":4.399715208541481,
        "name":"Le Pain Quotidien",
        "street":"Steenhouwersvest 48",
        "tags":[
            "Snack"
        ],
        "zip":2000
    },
    {
        "city":"Gent",
        "lat":51.04381416773671,
        "lon":3.726016922973371,
        "name":"Le Pain Total",
        "street":"Sint-Pietersnieuwstraat 218",
        "tags":[
            "Cateraar",
            "Snack",
            "EVA voordeel",
            "Veganvriendelijk"
        ],
        "zip":9000
    },
    {
        "city":"Brussel",
        "lat":50.850109098907026,
        "lon":4.347110917562523,
        "name":"Le Paon Royal",
        "street":"Oude Graanmarkt 6",
        "tags":[
            "Eethuis"
        ],
        "zip":1000
    },
    {
        "city":"Brussel",
        "lat":50.8395114315973,
        "lon":4.353546955765455,
        "name":"Le Perroquet",
        "street":"Watteeustraat 31",
        "tags":[
            "Eethuis"
        ],
        "zip":1000
    },
    {
        "city":"Elsene",
        "lat":50.83961112325971,
        "lon":4.372698939737961,
        "name":"Le Pullman",
        "street":"Luxemburgplein 12",
        "tags":[
            "Eethuis"
        ],
        "zip":1050
    },
    {
        "city":"Brussel",
        "lat":50.85238277824536,
        "lon":4.343673249367892,
        "name":"Le Space: Dum tek veg",
        "street":"Sleutelstraat 26",
        "tags":[
            "Eethuis"
        ],
        "zip":1000
    },
    {
        "city":"Schaarbeek",
        "lat":50.85042976588114,
        "lon":4.401711550900237,
        "name":"Le Tibet",
        "street":"Boulevard Auguste Reyers 153",
        "tags":[
            "Eethuis"
        ],
        "zip":1030
    },
    {
        "city":"Gent",
        "lat":51.037031890240094,
        "lon":3.7121802580223022,
        "name":"Lekker GEC",
        "street":"Koningin Maria Hendrikaplein 6",
        "tags":[
            "Eethuis",
            "100% vegetarisch",
            "Veganvriendelijk"
        ],
        "zip":9000
    },
    {
        "city":"Gent",
        "lat":51.05210309946951,
        "lon":3.719599315812496,
        "name":"Lepelblad",
        "street":"Onderbergen 40",
        "tags":[
            "Eethuis"
        ],
        "zip":9000
    },
    {
        "city":"Brussel",
        "lat":50.84961454459741,
        "lon":4.346386926991319,
        "name":"Les Filles",
        "street":"Rue du Vieux March\u00e9 aux Grains 46",
        "tags":[
            "Eethuis"
        ],
        "zip":1000
    },
    {
        "city":"Sint-Gillis",
        "lat":50.830448750742754,
        "lon":4.345757012265844,
        "name":"Les Nourritures",
        "street":"Sint-Gillisvoorplein 43",
        "tags":[
            "Eethuis"
        ],
        "zip":1060
    },
    {
        "city":"Sint-Gillis",
        "lat":50.830448750742754,
        "lon":4.345757012265844,
        "name":"Les Nourritures Terrestres",
        "street":"Sint-Gillisvoorplein 43",
        "tags":[
            "100% vegetarisch",
            "Veganvriendelijk"
        ],
        "zip":1060
    },
    {
        "city":"Watermaal-Bosvoorde",
        "lat":50.802320700620264,
        "lon":4.41824633061715,
        "name":"Les rives du Gange",
        "street":"avenue de la Fauconnerie 1-5",
        "tags":[
            "Eethuis",
            "Snack"
        ],
        "zip":1170
    },
    {
        "city":"Sint Martens Latem",
        "lat":51.005677231320725,
        "lon":3.63456791588454,
        "name":"Leven in Balans",
        "street":"Kraaiendonk 36",
        "tags":[
            "Cateraar"
        ],
        "zip":9830
    },
    {
        "city":"Brussel",
        "lat":50.847862473722664,
        "lon":4.351854614231369,
        "name":"Little Asia",
        "street":"rue St. Cath\u00e9rine St. Katelijnestraat 8",
        "tags":[
            "Gastronomisch"
        ],
        "zip":1000
    },
    {
        "city":"Antwerpen",
        "lat":51.22303211704793,
        "lon":4.400219833389604,
        "name":"Little Ethiopia",
        "street":"Zirkstraat 8",
        "tags":[
            "Eethuis",
            "EVA voordeel"
        ],
        "zip":2000
    },
    {
        "city":"Geel",
        "lat":51.162530595491816,
        "lon":4.990484753422669,
        "name":"Living",
        "street":"Markt 20",
        "tags":[
            "Eethuis",
            "Veganvriendelijk"
        ],
        "zip":2440
    },
    {
        "city":" Gent",
        "lat":51.04966944289746,
        "lon":3.731584127951162,
        "name":"Lokaal",
        "street":"Brabantdam 100",
        "tags":[
            "Eethuis",
            "100% vegetarisch",
            "EVA voordeel"
        ],
        "zip":9000
    },
    {
        "city":"Antwerpen",
        "lat":51.217287492499956,
        "lon":4.403851163168568,
        "name":"Lombardia",
        "street":"Lombardenvest 78",
        "tags":[
            "Snack",
            "EVA voordeel",
            "Veganvriendelijk"
        ],
        "zip":2000
    },
    {
        "city":"Nazareth",
        "lat":50.9577007766522,
        "lon":3.6390617893899213,
        "name":"Lotus Root",
        "street":"Stationsstraat 33",
        "tags":[
            "Eethuis"
        ],
        "zip":9810
    },
    {
        "city":"Brussel",
        "lat":50.83848680484259,
        "lon":4.355080532424223,
        "name":"Lotus-Bar",
        "street":"Rue Joseph Stevensstraat 12",
        "tags":[
            "Eethuis"
        ],
        "zip":1000
    },
    {
        "city":"Leuven",
        "lat":50.877152367673766,
        "lon":4.705240452709247,
        "name":"Loving Hut",
        "street":"Tiensestraat 65",
        "tags":[
            "Eethuis",
            "100% vegetarisch",
            "EVA voordeel",
            "Veganvriendelijk"
        ],
        "zip":3000
    },
    {
        "city":"Brussel",
        "lat":50.85078358724611,
        "lon":4.348715281212784,
        "name":"Loving Hut Express",
        "street":"Sint-Katelijneplein",
        "tags":[
            "Eethuis"
        ],
        "zip":1000
    },
    {
        "city":"Leuven",
        "lat":50.87918447441649,
        "lon":4.701930062923422,
        "name":"Loving Hut Venagerie",
        "street":"Rector De Someplein 13",
        "tags":[
            "Eethuis",
            "100% plantaardig",
            "100% vegetarisch",
            "Veganvriendelijk"
        ],
        "zip":3000
    },
    {
        "city":"Leuven",
        "lat":50.87478540581516,
        "lon":4.703049645515355,
        "name":"Lukemieke",
        "street":"Vlamingenstraat 55",
        "tags":[
            "Eethuis",
            "100% vegetarisch"
        ],
        "zip":3000
    },
    {
        "city":"Gent",
        "lat":51.048790580063475,
        "lon":3.7187895407882565,
        "name":"Lust",
        "street":"Napoleon destanbergstraat 3",
        "tags":[
            "Cateraar"
        ],
        "zip":9000
    },
    {
        "city":"Leuven",
        "lat":50.87889185963708,
        "lon":4.700507062419342,
        "name":"Lyrique",
        "street":"Grote Markt 12",
        "tags":[
            "Eethuis",
            "Snack"
        ],
        "zip":3000
    },
    {
        "city":"Leuven",
        "lat":50.87833853666988,
        "lon":4.6990822426512135,
        "name":"L\u2019Inizio Pasta Bar",
        "street":"Parijsstraat 39",
        "tags":[
            "Eethuis"
        ],
        "zip":3000
    },
    {
        "city":"Gent",
        "lat":51.06604193965381,
        "lon":3.7140847289889134,
        "name":"M-with a view",
        "street":"Gasmeterlaan 110",
        "tags":[
            "Gastronomisch"
        ],
        "zip":9000
    },
    {
        "city":"Antwerpen",
        "lat":51.20957871256886,
        "lon":4.390551437037607,
        "name":"Madam Toertjes",
        "street":"Vlaamse kaai 72",
        "tags":[
            "Snack"
        ],
        "zip":2000
    },
    {
        "city":"Halle",
        "lat":50.73219493518546,
        "lon":4.239368909934879,
        "name":"Mag's Eetbar",
        "street":"Vandenpeereboomstraat 8",
        "tags":[
            "Eethuis",
            "Snack"
        ],
        "zip":1500
    },
    {
        "city":"Zaventem",
        "lat":50.88750728903948,
        "lon":4.470579484360232,
        "name":"Maharaja",
        "street":"Vilvoordelaan 39",
        "tags":[
            "Eethuis"
        ],
        "zip":1930
    },
    {
        "city":"Antwerpen",
        "lat":51.220956336271016,
        "lon":4.398185913278018,
        "name":"Mai Thai",
        "street":"Suikerrui Z6",
        "tags":[
            "Eethuis"
        ],
        "zip":2000
    },
    {
        "city":"Hasselt",
        "lat":50.92999304046519,
        "lon":5.340601737623323,
        "name":"Maison Blanche",
        "street":"Maastrichterstraat 82",
        "tags":[
            "Eethuis"
        ],
        "zip":3500
    },
    {
        "city":"Antwerpen",
        "lat":51.220082153393385,
        "lon":4.406186332328978,
        "name":"Mama Matrea",
        "street":"Lange Nieuwstraat 13",
        "tags":[
            "Eethuis",
            "EVA voordeel"
        ],
        "zip":2000
    },
    {
        "city":"Antwerpen",
        "lat":51.21986820998142,
        "lon":4.40020333819031,
        "name":"Mama's Garden",
        "street":"Oude Koornmarkt 41-43",
        "tags":[
            "Eethuis"
        ],
        "zip":2000
    },
    {
        "city":"St-Gillis",
        "lat":50.83646148024042,
        "lon":4.339834326099808,
        "name":"Mammouth",
        "street":"Ruslandstraat 10",
        "tags":[
            "Snack"
        ],
        "zip":1060
    },
    {
        "city":"Antwerpen",
        "lat":51.20906363969548,
        "lon":4.401998907299973,
        "name":"Mampoko",
        "street":"Amerikalei 8",
        "tags":[
            "Eethuis"
        ],
        "zip":2000
    },
    {
        "city":"Gent",
        "lat":51.05610926801702,
        "lon":3.7256057509425595,
        "name":"Marco Polo Trattoria",
        "street":"Serpentstraat 11",
        "tags":[
            "Eethuis",
            "Veganvriendelijk"
        ],
        "zip":9000
    },
    {
        "city":"Antwerpen",
        "lat":51.21942841894829,
        "lon":4.397755541212507,
        "name":"Mata Mata & Pili Pili",
        "street":"Hoogstraat 44",
        "tags":[
            "Eethuis"
        ],
        "zip":2000
    },
    {
        "city":"Antwerpen",
        "lat":51.24581218978841,
        "lon":4.416060185472309,
        "name":"Matiate",
        "street":"Groenendaallaan 414",
        "tags":[
            "Eethuis"
        ],
        "zip":2030
    },
    {
        "city":"Schelderode",
        "lat":51.01696253891969,
        "lon":3.7528642491553743,
        "name":"Mayom Thai",
        "street":"Hundelgemsesteenweg 220",
        "tags":[
            "Cateraar",
            "Eethuis",
            "Snack"
        ],
        "zip":9820
    },
    {
        "city":"Halle",
        "lat":50.734356087418774,
        "lon":4.234560901745362,
        "name":"Me Gusta",
        "street":"Bergensesteenweg 20",
        "tags":[
            "Eethuis"
        ],
        "zip":1500
    },
    {
        "city":"Melle",
        "lat":51.02320903263739,
        "lon":3.775430722195523,
        "name":"Meridiem",
        "street":"Brusselsesteenweg 69",
        "tags":[
            "Eethuis"
        ],
        "zip":9090
    },
    {
        "city":"Sint-Niklaas",
        "lat":51.16873806649821,
        "lon":4.1428166353901625,
        "name":"Merlot",
        "street":"Regentiestraat 4",
        "tags":[
            "Eethuis"
        ],
        "zip":9100
    },
    {
        "city":"Sint-Niklaas",
        "lat":51.1637422001106,
        "lon":4.139080937013095,
        "name":"Met Tijd en Boterhammen",
        "street":"Nieuwstraat 5",
        "tags":[
            "Eethuis",
            "Snack"
        ],
        "zip":9100
    },
    {
        "city":"Wilrijk",
        "lat":51.16934217385778,
        "lon":4.406244971052172,
        "name":"Mezze Bar Efes",
        "street":"De Kern 13",
        "tags":[
            "Eethuis"
        ],
        "zip":2610
    },
    {
        "city":"Brussel",
        "lat":50.845201616865204,
        "lon":4.383987602591317,
        "name":"Mi-figue Mi-raisin",
        "street":"Archimedesstraat 71",
        "tags":[
            "Eethuis",
            "Veganvriendelijk"
        ],
        "zip":1000
    },
    {
        "city":"Tremelo",
        "lat":50.9934078244696,
        "lon":4.706660964206089,
        "name":"Miel van Kest",
        "street":"Schrieksebaan 59",
        "tags":[
            "Eethuis"
        ],
        "zip":3120
    },
    {
        "city":"Gent",
        "lat":51.060063163404614,
        "lon":3.730315842221244,
        "name":"Mimosa",
        "street":"Kongostraat 2",
        "tags":[
            "Eethuis"
        ],
        "zip":9000
    },
    {
        "city":"Elsene",
        "lat":50.82941693758741,
        "lon":4.373719911174009,
        "name":"Mo-Mo",
        "street":"Rue Defacqzstraat 27",
        "tags":[
            "Eethuis",
            "Veganvriendelijk"
        ],
        "zip":1050
    },
    {
        "city":"Teuven",
        "lat":50.754159291726275,
        "lon":5.8712241709344415,
        "name":"Moeder de Gans",
        "street":"Teuven-dorp 60",
        "tags":[
            "Eethuis"
        ],
        "zip":3793
    },
    {
        "city":"Brussel",
        "lat":50.85232133880832,
        "lon":4.3523785148741965,
        "name":"Monya",
        "street":"Zwaluwenstraat 9",
        "tags":[
            "Eethuis"
        ],
        "zip":1000
    },
    {
        "city":"Gent",
        "lat":51.05528759445681,
        "lon":3.7232921365287943,
        "name":"Mosquito Coast",
        "street":"Hoogpoort 28",
        "tags":[
            "Eethuis",
            "Veganvriendelijk"
        ],
        "zip":9000
    },
    {
        "city":"Hasselt",
        "lat":50.931905303978034,
        "lon":5.334381789684905,
        "name":"MOSQUITO DA BEIRA BAIXA",
        "street":"Dokter Willemsstraat 38",
        "tags":[
            "Eethuis"
        ],
        "zip":3500
    },
    {
        "city":"Brussel",
        "lat":50.84260218298565,
        "lon":4.343635729198065,
        "name":"Mr. Falafel",
        "street":"Lemonnierlaan 53",
        "tags":[
            "Snack",
            "100% vegetarisch"
        ],
        "zip":1000
    },
    {
        "city":"Gent",
        "lat":51.056814952394234,
        "lon":3.723142718566722,
        "name":"Mrs. Beanzz",
        "street":"Hoefslagstraatje 6",
        "tags":[
            "Eethuis",
            "100% vegetarisch",
            "EVA voordeel"
        ],
        "zip":9000
    },
    {
        "city":"Gent",
        "lat":51.03815089678561,
        "lon":3.7243693849525035,
        "name":"Mub'art",
        "street":"Fernand Scribedreef 1",
        "tags":[
            "Eethuis"
        ],
        "zip":9000
    },
    {
        "city":"Gent",
        "lat":51.06457699850648,
        "lon":3.7288847793136726,
        "name":"Muday",
        "street":"Sint-Salvatorstraat 53",
        "tags":[
            "Eethuis"
        ],
        "zip":9000
    },
    {
        "city":"Gent",
        "lat":51.061038292700694,
        "lon":3.7277919277279823,
        "name":"Multatuli",
        "street":"Huidevetterskaai 40",
        "tags":[
            "Eethuis",
            "Veganvriendelijk"
        ],
        "zip":9000
    },
    {
        "city":"Leuven",
        "lat":50.87784178315608,
        "lon":4.703071440442152,
        "name":"Mykene",
        "street":"Muntstraat 44",
        "tags":[
            "Eethuis",
            "Veganvriendelijk"
        ],
        "zip":3000
    },
    {
        "city":"Deurne",
        "lat":51.2230032829546,
        "lon":4.467953337275927,
        "name":"Nam Fong",
        "street":"Boshovestraat 46-48",
        "tags":[
            "Eethuis"
        ],
        "zip":2100
    },
    {
        "city":"Leuven",
        "lat":50.877434982379675,
        "lon":4.7007098839151835,
        "name":"Namaste",
        "street":"Naamsestraat 25",
        "tags":[
            "Eethuis"
        ],
        "zip":3000
    },
    {
        "city":"Antwerpen",
        "lat":51.22074967238234,
        "lon":4.397913828288202,
        "name":"Namaste",
        "street":"Suikerrui 14",
        "tags":[
            "Eethuis"
        ],
        "zip":2000
    },
    {
        "city":"Antwerpen",
        "lat":51.216974799687435,
        "lon":4.396895254093088,
        "name":"Native",
        "street":"Muntstraat 8",
        "tags":[
            "Snack"
        ],
        "zip":2000
    },
    {
        "city":"Sint-Niklaas",
        "lat":51.16531605273939,
        "lon":4.139516403084879,
        "name":"Navaro",
        "street":"Parkstraat 5",
        "tags":[
            "Snack"
        ],
        "zip":9100
    },
    {
        "city":"Kortrijk",
        "lat":50.82682387863682,
        "lon":3.271510546321245,
        "name":"Nectar",
        "street":"Sint Jansstraat 17",
        "tags":[
            "Eethuis"
        ],
        "zip":8500
    },
    {
        "city":"Brussel",
        "lat":50.82868217285996,
        "lon":4.291920394993346,
        "name":"Neuf et Voisin",
        "street":"Van Arteveldestraat 1",
        "tags":[
            "Eethuis"
        ],
        "zip":1000
    },
    {
        "city":"Leuven",
        "lat":50.877977353046454,
        "lon":4.70281664646056,
        "name":"New Mexico",
        "street":"Muntstraat 34",
        "tags":[
            "Eethuis"
        ],
        "zip":3000
    },
    {
        "city":"Hasselt",
        "lat":50.93804941327765,
        "lon":5.315129590393515,
        "name":"Ni Hao",
        "street":"Crutzenstraat 6",
        "tags":[
            "Eethuis"
        ],
        "zip":3500
    },
    {
        "city":"Lommel",
        "lat":51.162243131637034,
        "lon":5.264421860074676,
        "name":"Nori Events",
        "street":"Kerkweg 1",
        "tags":[
            "Cateraar"
        ],
        "zip":3920
    },
    {
        "city":"Mechelen",
        "lat":51.026876649927836,
        "lon":4.480007157804094,
        "name":"Nostradam",
        "street":"Blauwhondstraat 25",
        "tags":[
            "Eethuis"
        ],
        "zip":2800
    },
    {
        "city":"Brussel",
        "lat":50.82645939396757,
        "lon":4.36286173932774,
        "name":"Notos",
        "street":"Livornostraat 154",
        "tags":[
            "Eethuis"
        ],
        "zip":1000
    },
    {
        "city":"Sint-Niklaas",
        "lat":51.16405663266607,
        "lon":4.138993619306363,
        "name":"Nova",
        "street":"Grote Markt 9",
        "tags":[
            "Eethuis",
            "Snack",
            "Veganvriendelijk"
        ],
        "zip":9100
    },
    {
        "city":"Hasselt",
        "lat":50.9308032557058,
        "lon":5.339380869146675,
        "name":"Numero Dieci",
        "street":"Zuivelmarkt 10",
        "tags":[
            "Eethuis"
        ],
        "zip":3500
    },
    {
        "city":"Antwerpen",
        "lat":51.20815801671623,
        "lon":4.3931550572725815,
        "name":"Nuova Era",
        "street":"Graaf Van Hoornestraat 3",
        "tags":[
            "Eethuis"
        ],
        "zip":2000
    },
    {
        "city":"Hasselt",
        "lat":50.926499278997625,
        "lon":5.3391068577207275,
        "name":"Oats",
        "street":"Toekomststraat 20",
        "tags":[
            "Eethuis"
        ],
        "zip":3500
    },
    {
        "city":"Gent",
        "lat":51.028296762634334,
        "lon":3.7223951224552647,
        "name":"Ocean Garden",
        "street":"Zwijnaardsesteenweg 399",
        "tags":[
            "Snack"
        ],
        "zip":9000
    },
    {
        "city":"Sterrebeek",
        "lat":50.85109241703316,
        "lon":4.504468088734993,
        "name":"Office Traiteur Catering",
        "street":"Hippodroomlaan 173",
        "tags":[
            "Cateraar"
        ],
        "zip":1933
    },
    {
        "city":"Leuven",
        "lat":50.87642292424214,
        "lon":4.699381330780871,
        "name":"Officina Clandestina",
        "street":"Sint-Antoniusberg 6",
        "tags":[
            "Eethuis",
            "Snack"
        ],
        "zip":3000
    },
    {
        "city":"Zottegem",
        "lat":50.86986837597801,
        "lon":3.8108644784880195,
        "name":"Old Sotteghem",
        "street":"Markt 3",
        "tags":[
            "Eethuis"
        ],
        "zip":9620
    },
    {
        "city":"Leuven",
        "lat":50.87884952541922,
        "lon":4.699583165195527,
        "name":"OONA Asian Restaurant en Bar",
        "street":"Parijsstraat 23",
        "tags":[
            "Eethuis",
            "Veganvriendelijk"
        ],
        "zip":3000
    },
    {
        "city":"Mol",
        "lat":51.18818157407639,
        "lon":5.119375680940124,
        "name":"Opera",
        "street":"Kloosterstraat 1",
        "tags":[
            "Snack"
        ],
        "zip":2400
    },
    {
        "city":"Liedekerke",
        "lat":50.864752941264086,
        "lon":4.1033780358112,
        "name":"Orangerie",
        "street":"Schelfhoutstraat 77",
        "tags":[
            "Eethuis"
        ],
        "zip":1770
    },
    {
        "city":"Gent",
        "lat":51.0497010026413,
        "lon":3.730770796279011,
        "name":"Orchidee",
        "street":"Vlaanderenstraat 105",
        "tags":[
            "Snack",
            "Veganvriendelijk"
        ],
        "zip":9000
    },
    {
        "city":"Brussel",
        "lat":50.83952939477,
        "lon":4.353419175693129,
        "name":"Orphyse Chausette",
        "street":"Charles Hanssensstraat 5",
        "tags":[
            "Eethuis"
        ],
        "zip":1000
    },
    {
        "city":"Elsene",
        "lat":50.82790680472413,
        "lon":4.370426800287716,
        "name":"Oups",
        "street":"Lesbroussartstraat 13",
        "tags":[
            "Snack",
            "Veganvriendelijk"
        ],
        "zip":1050
    },
    {
        "city":"Antwerpen",
        "lat":51.207254090237626,
        "lon":4.430959199257351,
        "name":"Overvloed",
        "street":"Dageraadplaats 8",
        "tags":[
            "Eethuis"
        ],
        "zip":2018
    },
    {
        "city":"Gent",
        "lat":51.046953885255974,
        "lon":3.7248187430116007,
        "name":"Pacha Mama",
        "street":"Jan-Baptist Guinardstraat 9",
        "tags":[
            "Eethuis",
            "100% vegetarisch",
            "Veganvriendelijk"
        ],
        "zip":9000
    },
    {
        "city":"Waltwilder",
        "lat":50.8703208179682,
        "lon":5.518045348354416,
        "name":"Padam",
        "street":"Markt 41",
        "tags":[
            "Eethuis",
            "Snack"
        ],
        "zip":3740
    },
    {
        "city":"Leuven",
        "lat":50.88219005284586,
        "lon":4.687911747958736,
        "name":"Pannenkoekenhuis",
        "street":"Brusselsestraat 26",
        "tags":[
            "Eethuis"
        ],
        "zip":3000
    },
    {
        "city":"Gent",
        "lat":51.056338257874984,
        "lon":3.7263870983723226,
        "name":"Pappardelle",
        "street":"Kammerstraat 5",
        "tags":[
            "Eethuis"
        ],
        "zip":9000
    },
    {
        "city":"Evere",
        "lat":50.86842762047016,
        "lon":4.3983576410044565,
        "name":"Paradise of India",
        "street":"RUE Godefroid Kurth-85",
        "tags":[
            "Eethuis"
        ],
        "zip":1140
    },
    {
        "city":"Gent",
        "lat":51.051350220661845,
        "lon":3.716743091644797,
        "name":"Parnassus",
        "street":"Oude Houtlei 122",
        "tags":[
            "Eethuis"
        ],
        "zip":9000
    },
    {
        "city":"Mechelen",
        "lat":51.00810330679551,
        "lon":4.474847164250925,
        "name":"Passade",
        "street":"Brusselsesteenweg 301",
        "tags":[
            "Eethuis"
        ],
        "zip":2800
    },
    {
        "city":"Antwerpen",
        "lat":51.21955382774416,
        "lon":4.399415913735942,
        "name":"Pasta Hippo",
        "street":"Pelgrimstraat 1-3",
        "tags":[
            "Eethuis"
        ],
        "zip":2000
    },
    {
        "city":"Antwerpen",
        "lat":51.22048876314344,
        "lon":4.398872642595865,
        "name":"Pasta winkel",
        "street":"Hoogstraat 6",
        "tags":[
            "Eethuis"
        ],
        "zip":2000
    },
    {
        "city":"Antwerpen",
        "lat":51.21986820998142,
        "lon":4.40020333819031,
        "name":"Pasta-Hippo",
        "street":"Oude Koornmarkt 32-34",
        "tags":[
            "Eethuis"
        ],
        "zip":2000
    },
    {
        "city":"Brugge",
        "lat":51.20699572186547,
        "lon":3.2169073893014946,
        "name":"Pastis",
        "street":"Speelmansrei 8",
        "tags":[
            "Eethuis"
        ],
        "zip":8000
    },
    {
        "city":"Brussel",
        "lat":50.84966862588736,
        "lon":4.34718211505981,
        "name":"Pataya",
        "street":"Antoine Dansaertstraat 49",
        "tags":[
            "Eethuis"
        ],
        "zip":1000
    },
    {
        "city":"Gent",
        "lat":51.041543835150634,
        "lon":3.694535680220294,
        "name":"Patijntje",
        "street":"Gordunakaai 91",
        "tags":[
            "Eethuis",
            "Veganvriendelijk"
        ],
        "zip":9000
    },
    {
        "city":"Brugge",
        "lat":51.2065848859738,
        "lon":3.220881566478807,
        "name":"Patrick Devos",
        "street":"Zilverstraat 41",
        "tags":[
            "Gastronomisch"
        ],
        "zip":8000
    },
    {
        "city":"Hasselt",
        "lat":50.932579989202644,
        "lon":5.338692098064036,
        "name":"Pattos",
        "street":"Demerstraat 69",
        "tags":[
            "Eethuis"
        ],
        "zip":3500
    },
    {
        "city":"Kortrijk",
        "lat":50.82682387863682,
        "lon":3.271510546321245,
        "name":"Paul's Boutique",
        "street":"Kleine Sint-Jansstraat en Zandstraat 19",
        "tags":[
            "Eethuis",
            "Snack"
        ],
        "zip":8500
    },
    {
        "city":"Wulpen",
        "lat":51.13157369290018,
        "lon":2.669113042471094,
        "name":"Peper & Zout",
        "street":"Albert I Laan 43",
        "tags":[
            "Eethuis"
        ],
        "zip":8670
    },
    {
        "city":"Lier",
        "lat":51.129879226888704,
        "lon":4.5688521728509865,
        "name":"Pezo",
        "street":"Eikelstraat 36",
        "tags":[
            "Eethuis"
        ],
        "zip":2500
    },
    {
        "city":"Rumst",
        "lat":51.08670245236546,
        "lon":4.453204422820165,
        "name":"Philippe Van den Bulck",
        "street":"Hoge Vosbergstraat 11",
        "tags":[
            "Cateraar"
        ],
        "zip":2840
    },
    {
        "city":"Hoboken",
        "lat":51.18519251373173,
        "lon":4.343156071690145,
        "name":"Philippe Van den Bulck",
        "street":"Graspolderlaan 12",
        "tags":[
            "Cateraar"
        ],
        "zip":2660
    },
    {
        "city":" Brussel",
        "lat":50.853012365698014,
        "lon":4.345277663086135,
        "name":"Picnik",
        "street":"Vlaamsesteenweg 109",
        "tags":[
            "Cateraar"
        ],
        "zip":1000
    },
    {
        "city":"Booischot",
        "lat":51.03673853784791,
        "lon":4.773954460037,
        "name":"Piet Konijn",
        "street":"Kleine Steenweg 155",
        "tags":[
            "Eethuis"
        ],
        "zip":2221
    },
    {
        "city":"Gent",
        "lat":51.05119383638832,
        "lon":3.7292244440508107,
        "name":"Pinocchio",
        "street":"Vlaanderenstraat 9",
        "tags":[
            "Eethuis"
        ],
        "zip":9000
    },
    {
        "city":"Merksem",
        "lat":51.2442153463245,
        "lon":4.4444130226617675,
        "name":"Poespas Gezondheidsbar",
        "street":"Bredabaan 430",
        "tags":[
            "Eethuis"
        ],
        "zip":2170
    },
    {
        "city":"Zegelsem (Brakel)",
        "lat":50.79373791875597,
        "lon":3.7175001627977577,
        "name":"Ponderspijs",
        "street":"Rovorst 33",
        "tags":[
            "Cateraar",
            "Veganvriendelijk"
        ],
        "zip":9660
    },
    {
        "city":"Zegelsem (Brakel)",
        "lat":50.79373791875597,
        "lon":3.7175001627977577,
        "name":"Ponderspijs",
        "street":"Rovorst 33",
        "tags":[
            "Cateraar"
        ],
        "zip":9660
    },
    {
        "city":"Sint-Niklaas",
        "lat":51.16484592320111,
        "lon":4.142778229266614,
        "name":"Porto Belfino",
        "street":"Houtbriel 24",
        "tags":[
            "Eethuis"
        ],
        "zip":9100
    },
    {
        "city":"Lokeren",
        "lat":51.104801948442564,
        "lon":3.9887382959358524,
        "name":"Postiljon",
        "street":"Markt 14",
        "tags":[
            "Eethuis"
        ],
        "zip":9160
    },
    {
        "city":"Tielen",
        "lat":51.23600783590903,
        "lon":4.9708187714608325,
        "name":"Potiron",
        "street":"Geelsebaan 73",
        "tags":[
            "Eethuis"
        ],
        "zip":2460
    },
    {
        "city":"Kasterlee",
        "lat":51.23600783590903,
        "lon":4.9708187714608325,
        "name":"Potiron",
        "street":"Geelsebaan 73",
        "tags":[
            "Eethuis"
        ],
        "zip":2460
    },
    {
        "city":"Geel",
        "lat":51.16801347703741,
        "lon":4.988842152351032,
        "name":"Prepareeke",
        "street":"Rozendaal 4",
        "tags":[
            "Eethuis"
        ],
        "zip":2440
    },
    {
        "city":"Heverlee",
        "lat":50.86713232827141,
        "lon":4.697753198917232,
        "name":"Punjab",
        "street":"Naamsesteenweg 33",
        "tags":[
            "Eethuis"
        ],
        "zip":3001
    },
    {
        "city":"Gent",
        "lat":51.06105508979887,
        "lon":3.725922994055608,
        "name":"Punjab Tandoori",
        "street":"Sleepstraat 67",
        "tags":[
            "Eethuis",
            "Veganvriendelijk"
        ],
        "zip":9000
    },
    {
        "city":"Leuven",
        "lat":50.87866135111002,
        "lon":4.69936870014012,
        "name":"PurPur",
        "street":"Parijsstraat 33",
        "tags":[
            "Eethuis"
        ],
        "zip":3000
    },
    {
        "city":"Gent",
        "lat":51.055166746112114,
        "lon":3.7242066416206705,
        "name":"Puur",
        "street":"Hoogpoort 35",
        "tags":[
            "Eethuis"
        ],
        "zip":9000
    },
    {
        "city":"Aalst",
        "lat":50.941481263289425,
        "lon":4.037367638854749,
        "name":"Qarfa",
        "street":"Stationsstraat 13",
        "tags":[
            "Cateraar"
        ],
        "zip":9300
    },
    {
        "city":"Gent",
        "lat":51.04456379766067,
        "lon":3.726662595208845,
        "name":"Quetzal - De chocoladebar",
        "street":"Sint-Pietersnieuwstraat 99",
        "tags":[
            "Snack"
        ],
        "zip":9000
    },
    {
        "city":"Hasselt",
        "lat":50.930404649451724,
        "lon":5.338661323534985,
        "name":"Quiche caf\u00e9",
        "street":"Botermarkt 11",
        "tags":[
            "Eethuis",
            "Snack"
        ],
        "zip":3500
    },
    {
        "city":"Gent",
        "lat":51.05918955278769,
        "lon":3.7250499416047083,
        "name":"Quicherie Patiron",
        "street":"Sluizeken 30",
        "tags":[
            "Eethuis"
        ],
        "zip":9000
    },
    {
        "city":"Leuven",
        "lat":50.878230026756356,
        "lon":4.702477430813441,
        "name":"Quo Vadis",
        "street":"Muntstraat 11",
        "tags":[
            "Eethuis"
        ],
        "zip":3000
    },
    {
        "city":"Brussel",
        "lat":50.841317549092985,
        "lon":4.348236454684402,
        "name":"Recyclart vzw",
        "street":"Ursulinenstraat 25",
        "tags":[
            "EVA voordeel"
        ],
        "zip":1000
    },
    {
        "city":"Torhout",
        "lat":51.064561611852476,
        "lon":3.1045614502084704,
        "name":"Red Rooster Fast Food",
        "street":"Stationsstraat 15",
        "tags":[
            "Eethuis"
        ],
        "zip":8820
    },
    {
        "city":"Brugge",
        "lat":51.2045281671259,
        "lon":3.2210752528562163,
        "name":"R\u00e9liva",
        "street":"Goezeputstraat 6",
        "tags":[
            "Eethuis",
            "Veganvriendelijk"
        ],
        "zip":8000
    },
    {
        "city":"Gent",
        "lat":51.04406826813524,
        "lon":3.7414852407616146,
        "name":"Restaurant Ateljee",
        "street":"Vlaamsekaai 10",
        "tags":[
            "Eethuis"
        ],
        "zip":9000
    },
    {
        "city":"Antwerpen",
        "lat":51.22248506091551,
        "lon":4.438723496947052,
        "name":"Resto Jardin",
        "street":"Somm\u00e9straat 45",
        "tags":[
            "Eethuis",
            "100% vegetarisch"
        ],
        "zip":2060
    },
    {
        "city":"Gent",
        "lat":51.053974093043045,
        "lon":3.7181899008753865,
        "name":"Riz d'Or",
        "street":"Sint-Michielsstraat 10",
        "tags":[
            "Eethuis"
        ],
        "zip":9000
    },
    {
        "city":"Brugge",
        "lat":51.20981390692218,
        "lon":3.232237081747898,
        "name":"Rock Fort",
        "street":"Langestraat 15",
        "tags":[
            "Eethuis"
        ],
        "zip":8000
    },
    {
        "city":"Mechelen",
        "lat":51.02653798101517,
        "lon":4.476899001755312,
        "name":"Ronda",
        "street":"Vismarkt 10",
        "tags":[
            "Eethuis"
        ],
        "zip":2800
    },
    {
        "city":"Gent",
        "lat":51.063615762849366,
        "lon":3.728997770977965,
        "name":"Rood",
        "street":"Sleepstraat 210",
        "tags":[
            "Eethuis"
        ],
        "zip":9000
    },
    {
        "city":"Oudenaarde",
        "lat":50.854328715655996,
        "lon":3.5930304738571843,
        "name":"Roodstop",
        "street":"Deinzestraat 63",
        "tags":[
            "Snack"
        ],
        "zip":9700
    },
    {
        "city":"Elsene",
        "lat":50.82778090173163,
        "lon":4.363926114851191,
        "name":"Rouge Tomate",
        "street":"Louizalaan 190",
        "tags":[
            "Eethuis"
        ],
        "zip":1050
    },
    {
        "city":"Leuven",
        "lat":50.87936363554426,
        "lon":4.689270809019026,
        "name":"Royal Indian Food",
        "street":"Tervuursestraat 5",
        "tags":[
            "Eethuis"
        ],
        "zip":3000
    },
    {
        "city":"Tienen",
        "lat":50.80628195486556,
        "lon":4.94052727149048,
        "name":"Sake Sushi House",
        "street":"Hennemarkt 12",
        "tags":[],
        "zip":3300
    },
    {
        "city":"Gent",
        "lat":51.05534863686794,
        "lon":3.7213087130535287,
        "name":"Sala Thai 3",
        "street":"Hooiaard 5",
        "tags":[
            "Eethuis"
        ],
        "zip":9000
    },
    {
        "city":"Antwerpen",
        "lat":51.210142197121506,
        "lon":4.402185721927338,
        "name":"Sale e pepe",
        "street":"Kasteelpleinstraat 53",
        "tags":[
            "Eethuis"
        ],
        "zip":2000
    },
    {
        "city":"Kortrijk",
        "lat":50.808234152955364,
        "lon":3.279520925256634,
        "name":"Same same but different",
        "street":"Doorniksesteenweg 105",
        "tags":[
            "Eethuis"
        ],
        "zip":8500
    },
    {
        "city":"Leuven",
        "lat":50.87829327597685,
        "lon":4.7023642088516615,
        "name":"Samourai",
        "street":"Muntstraat 9",
        "tags":[
            "Eethuis"
        ],
        "zip":3000
    },
    {
        "city":"Gent",
        "lat":51.05564118666531,
        "lon":3.7205629794817625,
        "name":"Sarabande",
        "street":"Korenlei 1",
        "tags":[
            "Eethuis"
        ],
        "zip":9000
    },
    {
        "city":"Oostende",
        "lat":51.20186122174166,
        "lon":2.916359797769634,
        "name":"Sassy's pizza en pastabar",
        "street":"Steensedijk 23",
        "tags":[
            "Eethuis",
            "EVA voordeel",
            "Veganvriendelijk"
        ],
        "zip":8400
    },
    {
        "city":"Mechelen",
        "lat":51.02850296643842,
        "lon":4.4807380245471995,
        "name":"Sava",
        "street":"Grote Markt 13",
        "tags":[
            "Eethuis",
            "Snack"
        ],
        "zip":2800
    },
    {
        "city":"Aalst",
        "lat":50.94112896236935,
        "lon":4.036758315813515,
        "name":"Savarin",
        "street":"Esplanadeplein 14",
        "tags":[
            "Eethuis"
        ],
        "zip":9300
    },
    {
        "city":"Zaventem",
        "lat":50.886833071617,
        "lon":4.470592224213584,
        "name":"Sawadee",
        "street":"Vilvoordelaan 21",
        "tags":[
            "Eethuis",
            "Veganvriendelijk"
        ],
        "zip":1930
    },
    {
        "city":"Heverlee",
        "lat":50.86212067485552,
        "lon":4.696141379146177,
        "name":"Siam",
        "street":"Naamsesteenweg 217",
        "tags":[
            "Eethuis"
        ],
        "zip":3001
    },
    {
        "city":"Antwerpen",
        "lat":51.221944472341434,
        "lon":4.400405159998624,
        "name":"Sjalot en Schanul",
        "street":"Oude beurs 12",
        "tags":[
            "Eethuis"
        ],
        "zip":2000
    },
    {
        "city":"Sinaai-Waas",
        "lat":51.15656700239658,
        "lon":4.042433805398157,
        "name":"Smos Express",
        "street":"Dries 29",
        "tags":[
            "Snack"
        ],
        "zip":9112
    },
    {
        "city":"Leuven",
        "lat":50.868836588811476,
        "lon":4.6990863307906565,
        "name":"Snackworld",
        "street":"Naamsevest 4",
        "tags":[
            "Snack"
        ],
        "zip":3000
    },
    {
        "city":"Sint-Niklaas",
        "lat":51.16568808236487,
        "lon":4.14133022706458,
        "name":"Soep en Zoet",
        "street":"Stationsstraat 16",
        "tags":[
            "Eethuis",
            "Snack"
        ],
        "zip":9100
    },
    {
        "city":"Heusden",
        "lat":51.035220999214935,
        "lon":3.822397822120968,
        "name":"Soepkom",
        "street":"Leegrede 3",
        "tags":[
            "Snack",
            "EVA voordeel"
        ],
        "zip":9070
    },
    {
        "city":"Antwerpen",
        "lat":51.22792228355644,
        "lon":4.42322811598928,
        "name":"Soepmie",
        "street":"Oranjestraat 94",
        "tags":[
            "Snack"
        ],
        "zip":2060
    },
    {
        "city":"Antwerpen",
        "lat":51.22430063798104,
        "lon":4.421778083510996,
        "name":"Soepmie",
        "street":"Dambruggestraat 26/1",
        "tags":[
            "Cateraar"
        ],
        "zip":2060
    },
    {
        "city":"Gent",
        "lat":51.048125158855555,
        "lon":3.7286103254887064,
        "name":"Soepplus",
        "street":"Lammerstraat 33",
        "tags":[
            "Snack"
        ],
        "zip":9000
    },
    {
        "city":"Lier",
        "lat":51.11800502139191,
        "lon":4.584154111005094,
        "name":"Soetemin",
        "street":"Schollebeekstraat 4",
        "tags":[
            "Eethuis"
        ],
        "zip":2500
    },
    {
        "city":"Brugge",
        "lat":51.2115836658468,
        "lon":3.2368024703599283,
        "name":"Sol Y Sombra",
        "street":"Langestraat 121",
        "tags":[
            "Snack"
        ],
        "zip":8000
    },
    {
        "city":"Brussel",
        "lat":50.840545124397636,
        "lon":4.35273738045381,
        "name":"Soul",
        "street":"Samaritanessestraat 20",
        "tags":[
            "Eethuis",
            "Veganvriendelijk"
        ],
        "zip":1000
    },
    {
        "city":"Brussel",
        "lat":50.852384062661756,
        "lon":4.350929986597428,
        "name":"Soup in the City",
        "street":"Lakensestraat 36",
        "tags":[
            "Snack"
        ],
        "zip":1000
    },
    {
        "city":"Ledeberg",
        "lat":51.03463721275709,
        "lon":3.734525810008194,
        "name":"Souperette",
        "street":"Bellevuestraat 30b",
        "tags":[
            "Eethuis"
        ],
        "zip":9050
    },
    {
        "city":"Gent",
        "lat":51.04711212444793,
        "lon":3.744211055818413,
        "name":"Sous Fleurs",
        "street":"Zalmstraat 75",
        "tags":[
            "Cateraar"
        ],
        "zip":9000
    },
    {
        "city":"Antwerpen",
        "lat":51.221818484948905,
        "lon":4.400948987992742,
        "name":"Spaghettiworld",
        "street":"Oude Koronmarkt 66",
        "tags":[
            "Eethuis"
        ],
        "zip":2000
    },
    {
        "city":"Mechelen",
        "lat":51.03867934278316,
        "lon":4.47987854851268,
        "name":"Spice and taste",
        "street":"Liersesteenweg 179",
        "tags":[
            "Eethuis"
        ],
        "zip":2800
    },
    {
        "city":"Gent",
        "lat":51.0608764840657,
        "lon":3.7261394181439704,
        "name":"Spice of India",
        "street":"Sleepstraat 66",
        "tags":[
            "Eethuis"
        ],
        "zip":9000
    },
    {
        "city":"Walem",
        "lat":51.024639602722665,
        "lon":4.487898141603456,
        "name":"Spice of India",
        "street":"Zandpoortvest 22",
        "tags":[
            "Eethuis"
        ],
        "zip":2800
    },
    {
        "city":"Gent",
        "lat":51.05082990780161,
        "lon":3.702459982126987,
        "name":"Spinnekop",
        "street":"Einde Were 44",
        "tags":[
            "Snack"
        ],
        "zip":9000
    },
    {
        "city":"Turnhout",
        "lat":51.32449983340029,
        "lon":4.952770877151921,
        "name":"Sprouts",
        "street":"Baron du Fourstraat 4 bus 7 (Bloemekensgang)",
        "tags":[
            "Eethuis",
            "100% vegetarisch",
            "Veganvriendelijk"
        ],
        "zip":2300
    },
    {
        "city":"Antwerpen",
        "lat":51.20635915336555,
        "lon":4.398190793518253,
        "name":"Starfish & Coffee",
        "street":"Bresstraat 9",
        "tags":[
            "Snack"
        ],
        "zip":2018
    },
    {
        "city":"Gent",
        "lat":51.05216430192212,
        "lon":3.727499732214183,
        "name":"Sushi-Food",
        "street":"Limburgstraat 36",
        "tags":[
            "Eethuis"
        ],
        "zip":9000
    },
    {
        "city":"Kortrijk",
        "lat":50.82911437420729,
        "lon":3.261718958997988,
        "name":"Sweet Lime",
        "street":"Kasteelkaai 4",
        "tags":[
            "Eethuis"
        ],
        "zip":8500
    },
    {
        "city":"Merendree",
        "lat":51.07874712308694,
        "lon":3.580835111283109,
        "name":"t Aards Paradijs",
        "street":"Merendreedorp 65",
        "tags":[
            "Gastronomisch"
        ],
        "zip":9850
    },
    {
        "city":"Leest",
        "lat":51.01415871862112,
        "lon":4.444308733046369,
        "name":"t Archief",
        "street":"Frans Reyniersstraat 17-19",
        "tags":[
            "Eethuis",
            "EVA voordeel"
        ],
        "zip":2811
    },
    {
        "city":"Heist-op-den-Berg",
        "lat":51.075390644432645,
        "lon":4.727131004343298,
        "name":"t Eetkafee",
        "street":"Bergstraat 2b",
        "tags":[
            "Eethuis"
        ],
        "zip":2220
    },
    {
        "city":"Heldergem",
        "lat":50.894519878534425,
        "lon":3.9979845645215297,
        "name":"t Friethoeksken",
        "street":"Kerkskenhoek 39",
        "tags":[
            "Snack"
        ],
        "zip":9450
    },
    {
        "city":"Zalardinge",
        "lat":50.7716703505482,
        "lon":3.8745049168443457,
        "name":"t Goed Verteer",
        "street":"Oudenaardsestraat 28",
        "tags":[
            "Eethuis"
        ],
        "zip":9500
    },
    {
        "city":"Zalardinge",
        "lat":50.7716703505482,
        "lon":3.8745049168443457,
        "name":"t Goed Verteer",
        "street":"Oudenaardsestraat 28",
        "tags":[
            "Eethuis"
        ],
        "zip":9500
    },
    {
        "city":"Gent",
        "lat":51.052644059415904,
        "lon":3.738118609517607,
        "name":"t Gouden hoofd",
        "street":"Slachthuisstraat 96",
        "tags":[
            "Eethuis"
        ],
        "zip":9000
    },
    {
        "city":"Nieuwerkerken",
        "lat":50.760033273046496,
        "lon":2.829799266552563,
        "name":"t Groen Blad",
        "street":"Kemmelstraat 94",
        "tags":[
            "Eethuis"
        ],
        "zip":8950
    },
    {
        "city":"Rupelmonde",
        "lat":51.14678507667333,
        "lon":4.2995903173136565,
        "name":"t Hofke van Bazel",
        "street":"Koningin Astridplein 11-13",
        "tags":[
            "Gastronomisch"
        ],
        "zip":9150
    },
    {
        "city":"Kortrijk-Dutsel (Holsbeek)",
        "lat":50.915118565637606,
        "lon":4.807472204068615,
        "name":"t Kraaienest",
        "street":"Gobbelsrode 74B",
        "tags":[
            "Cateraar"
        ],
        "zip":3220
    },
    {
        "city":"Waardamme",
        "lat":51.14082683789154,
        "lon":3.2172949910346964,
        "name":"t Roodhof",
        "street":"Nieuwburgstraat 32",
        "tags":[
            "Cateraar",
            "Eethuis"
        ],
        "zip":8020
    },
    {
        "city":"Poeke",
        "lat":51.08451196225954,
        "lon":3.4483465211822253,
        "name":"t Vijfde Seizoen",
        "street":"Stationsstraat 9",
        "tags":[
            "Gastronomisch"
        ],
        "zip":9880
    },
    {
        "city":"Waltwilder",
        "lat":50.878271804616645,
        "lon":5.499197863541701,
        "name":"t Vlierhof",
        "street":"Hasseltsestraat 57A",
        "tags":[
            "Gastronomisch"
        ],
        "zip":3740
    },
    {
        "city":"Sint-Amandsberg",
        "lat":51.069904535497585,
        "lon":3.7729273271324053,
        "name":"Table d'amis",
        "street":"Gustaaf Carelshof 6",
        "tags":[
            "Eethuis",
            "EVA voordeel"
        ],
        "zip":9040
    },
    {
        "city":"Antwerpen",
        "lat":51.21838759127883,
        "lon":4.418808581539591,
        "name":"Taj Mahal",
        "street":"Statiestraat 15",
        "tags":[
            "Eethuis"
        ],
        "zip":2018
    },
    {
        "city":"Zepperen",
        "lat":50.81715637580659,
        "lon":5.177465436528264,
        "name":"Taj Mahal",
        "street":"Stationsstraat 53",
        "tags":[
            "Eethuis"
        ],
        "zip":3800
    },
    {
        "city":"Antwerpen",
        "lat":51.21013337662249,
        "lon":4.40159900641727,
        "name":"Tangh's",
        "street":"Kasteelpleinstraat 36",
        "tags":[
            "Eethuis"
        ],
        "zip":2000
    },
    {
        "city":"Middelkerke",
        "lat":51.186009562940015,
        "lon":2.8103341214905115,
        "name":"Tartine",
        "street":"Zeedijk 153",
        "tags":[
            "Eethuis",
            "Snack"
        ],
        "zip":8430
    },
    {
        "city":"Gent",
        "lat":51.05243500061592,
        "lon":3.7211065204146916,
        "name":"Tartino",
        "street":"Predikherenlei 25",
        "tags":[
            "Snack"
        ],
        "zip":9000
    },
    {
        "city":"Oudenaarde",
        "lat":50.843375183647446,
        "lon":3.6034202096163863,
        "name":"Taste and Flavor",
        "street":"Markt 60",
        "tags":[
            "Eethuis"
        ],
        "zip":9700
    },
    {
        "city":"Hasselt",
        "lat":50.93018445853183,
        "lon":5.339197349554946,
        "name":"Taste of India",
        "street":"Fruitmarkt 26",
        "tags":[
            "Cateraar",
            "Eethuis"
        ],
        "zip":3500
    },
    {
        "city":"Hasselt",
        "lat":50.92990369778191,
        "lon":5.339447601709321,
        "name":"Tasty Bowl",
        "street":"Fruitmarkt 34",
        "tags":[
            "Eethuis"
        ],
        "zip":3500
    },
    {
        "city":"Gent",
        "lat":51.04916837905852,
        "lon":3.7270415913713406,
        "name":"Tasty I",
        "street":"Walpoortstraat 3",
        "tags":[
            "Snack",
            "100% vegetarisch",
            "EVA voordeel",
            "Veganvriendelijk"
        ],
        "zip":9000
    },
    {
        "city":"Gent",
        "lat":51.05572592738049,
        "lon":3.7229009879222126,
        "name":"Tasty II",
        "street":"Hoogpoort 1",
        "tags":[
            "Snack",
            "100% vegetarisch",
            "EVA voordeel",
            "Veganvriendelijk"
        ],
        "zip":9000
    },
    {
        "city":"Nijlen",
        "lat":51.17063701286178,
        "lon":4.643119424251394,
        "name":"Taverne De Beemden",
        "street":"Vogelzangstraat 29",
        "tags":[
            "Eethuis"
        ],
        "zip":2560
    },
    {
        "city":"Antwerpen",
        "lat":51.21926537637208,
        "lon":4.402378465085132,
        "name":"Terras caf\u00e9 (Hilton)",
        "street":"Groenplaats 32",
        "tags":[
            "Eethuis"
        ],
        "zip":2000
    },
    {
        "city":"Diegem",
        "lat":50.89583955163291,
        "lon":4.434337243382969,
        "name":"Testa Rossi",
        "street":"Oude Haachtsesteenweg 119",
        "tags":[
            "Eethuis"
        ],
        "zip":1831
    },
    {
        "city":"Sint-Michiels",
        "lat":51.18888737827768,
        "lon":3.2028057818320272,
        "name":"T\u00eate Press\u00e9e",
        "street":"Koningin Astridlaan 100",
        "tags":[
            "Gastronomisch"
        ],
        "zip":8200
    },
    {
        "city":"Zandvoorde",
        "lat":51.23132242557995,
        "lon":2.9134805123954104,
        "name":"Tex Mex",
        "street":"Monacoplein 7",
        "tags":[
            "Eethuis"
        ],
        "zip":8400
    },
    {
        "city":"Gent",
        "lat":51.048793254885254,
        "lon":3.7324659748185502,
        "name":"Thai Cuisine",
        "street":"Zuidstationstraat 2-4",
        "tags":[
            "Eethuis"
        ],
        "zip":9000
    },
    {
        "city":"Gent",
        "lat":51.04667713425232,
        "lon":3.7268190212857757,
        "name":"Thalia",
        "street":"Sint-Pietersnieuwstraat 138",
        "tags":[
            "Eethuis",
            "EVA voordeel"
        ],
        "zip":9000
    },
    {
        "city":"Kortrijk",
        "lat":50.825915081881185,
        "lon":3.2685508689843776,
        "name":"Than Thai",
        "street":"Lekkerbeetstraat 4-10",
        "tags":[
            "Eethuis",
            "Veganvriendelijk"
        ],
        "zip":8500
    },
    {
        "city":"Ledeberg",
        "lat":51.03719982045142,
        "lon":3.7396809070061447,
        "name":"Thawan Thai Take Away",
        "street":"Jacques Eggermontstraat 72",
        "tags":[
            "Eethuis",
            "Veganvriendelijk"
        ],
        "zip":9050
    },
    {
        "city":"Gent",
        "lat":51.04607150748593,
        "lon":3.7196401000639514,
        "name":"The Lounge",
        "street":"The Lounge",
        "tags":[
            "Snack"
        ],
        "zip":9000
    },
    {
        "city":"Leuven",
        "lat":50.87664412139852,
        "lon":4.700633241205477,
        "name":"The New Holy Cow",
        "street":"Naamsestraat 51",
        "tags":[
            "Eethuis"
        ],
        "zip":3000
    },
    {
        "city":"Leuven",
        "lat":50.87786266239038,
        "lon":4.698879964867082,
        "name":"The sushi lounge",
        "street":"Oude markt 34",
        "tags":[
            "Eethuis"
        ],
        "zip":3000
    },
    {
        "city":"Kessel-Lo",
        "lat":50.90704046682392,
        "lon":4.718194204395527,
        "name":"The Worldkitchen",
        "street":"Wilselsesteenweg 321",
        "tags":[
            "Eethuis"
        ],
        "zip":3010
    },
    {
        "city":"Hasselt",
        "lat":50.92641851818084,
        "lon":5.34667271641791,
        "name":"Theatercaf\u00e9",
        "street":"Kunstlaan 5",
        "tags":[
            "Eethuis"
        ],
        "zip":3500
    },
    {
        "city":"Brussel",
        "lat":50.82868217285996,
        "lon":4.291920394993346,
        "name":"Thien Long",
        "street":"Van Arteveldestraat 12",
        "tags":[
            "Snack"
        ],
        "zip":1000
    },
    {
        "city":"Antwerpen",
        "lat":51.21453220327329,
        "lon":4.417301696419132,
        "name":"Time Out",
        "street":"Lange Herentalsestraat 58",
        "tags":[
            "100% vegetarisch"
        ],
        "zip":2018
    },
    {
        "city":"Leuven",
        "lat":50.88049357809482,
        "lon":4.696752830241062,
        "name":"Timory",
        "street":"Brusselsestraat 76",
        "tags":[
            "Eethuis"
        ],
        "zip":3000
    },
    {
        "city":"Antwerpen",
        "lat":51.20957871256886,
        "lon":4.390551437037607,
        "name":"Tinsel",
        "street":"Vlaamse kaai 40",
        "tags":[
            "Snack"
        ],
        "zip":2000
    },
    {
        "city":"Gent",
        "lat":51.05879961697522,
        "lon":3.7244276739276625,
        "name":"Tiva",
        "street":"Oudburg 43",
        "tags":[
            "Cateraar",
            "Eethuis"
        ],
        "zip":9000
    },
    {
        "city":"Leuven",
        "lat":50.878356395119745,
        "lon":4.699124995625219,
        "name":"Toeareg",
        "street":"Parijsstraat 37",
        "tags":[
            "Eethuis"
        ],
        "zip":3000
    },
    {
        "city":"Gent",
        "lat":51.0542119827562,
        "lon":3.7173165637814334,
        "name":"Toi et moi",
        "street":"Sint-Michielsstraat 31",
        "tags":[
            "Eethuis"
        ],
        "zip":9000
    },
    {
        "city":"Antwerpen",
        "lat":51.22039017656716,
        "lon":4.397756153741997,
        "name":"Tokyo Sushi",
        "street":"Haarstraat 8",
        "tags":[
            "Eethuis",
            "Snack",
            "Veganvriendelijk"
        ],
        "zip":2000
    },
    {
        "city":"Gent",
        "lat":51.058351409182166,
        "lon":3.7020106528241525,
        "name":"Trafiek",
        "street":"Haspelstraat 37",
        "tags":[
            "Eethuis",
            "Snack",
            "Veganvriendelijk"
        ],
        "zip":9000
    },
    {
        "city":"Rotselaar",
        "lat":50.93836219457909,
        "lon":4.735016925792405,
        "name":"Traiteur Geert Groffen",
        "street":"Aarschotsesteenweg 10",
        "tags":[
            "Cateraar"
        ],
        "zip":3110
    },
    {
        "city":"Berchem",
        "lat":51.1999557211346,
        "lon":4.445656810242805,
        "name":"Trizee Privee",
        "street":"Thaliastraat 84",
        "tags":[
            "Cateraar"
        ],
        "zip":2600
    },
    {
        "city":"Leuven",
        "lat":50.868827399043205,
        "lon":4.699157296859612,
        "name":"Turquoise",
        "street":"Naamsevest 6",
        "tags":[
            "Eethuis"
        ],
        "zip":3000
    },
    {
        "city":"Voorde",
        "lat":50.82824424580411,
        "lon":4.029235976049041,
        "name":"Tweety Frit",
        "street":"Brusselsesteenweg 73",
        "tags":[
            "Snack"
        ],
        "zip":9400
    },
    {
        "city":"Gent",
        "lat":51.05523413324712,
        "lon":3.7217381900619304,
        "name":"Twilight Eetcaf\u00e9",
        "street":"Korenmarkt 36",
        "tags":[
            "Eethuis"
        ],
        "zip":9000
    },
    {
        "city":"Gent",
        "lat":51.056203781700496,
        "lon":3.7198848128264834,
        "name":"Uit Steppe & Oase",
        "street":"Jan Breydelstraat 21",
        "tags":[
            "Eethuis",
            "Veganvriendelijk"
        ],
        "zip":9000
    },
    {
        "city":"Antwerpen",
        "lat":51.208865004501,
        "lon":4.427112091773405,
        "name":"Umami",
        "street":"Magdalenastraat 8",
        "tags":[
            "Cateraar"
        ],
        "zip":2018
    },
    {
        "city":"Zwalm",
        "lat":50.87147855656345,
        "lon":3.7298780627524586,
        "name":"Un.Do",
        "street":"Veldstraat 4",
        "tags":[
            "Eethuis",
            "EVA voordeel"
        ],
        "zip":9630
    },
    {
        "city":"Antwerpen",
        "lat":51.22160159888422,
        "lon":4.404899360080487,
        "name":"Urban wraps",
        "street":"Minderbroedersrui 64",
        "tags":[
            "Eethuis"
        ],
        "zip":2000
    },
    {
        "city":"Antwerpen",
        "lat":51.20805087132883,
        "lon":4.38952042795263,
        "name":"Urvashi",
        "street":"Verschansingstraat 63",
        "tags":[
            "Eethuis"
        ],
        "zip":2000
    },
    {
        "city":"Hoogstraten",
        "lat":51.40530633136543,
        "lon":4.762345430692156,
        "name":"Vandersmissen Feestservice BVBA",
        "street":"Vrijheid 64",
        "tags":[
            "Cateraar"
        ],
        "zip":2320
    },
    {
        "city":"Antwerpen",
        "lat":51.217460674105986,
        "lon":4.394763033024713,
        "name":"Varelli",
        "street":"Plantinkaai 15",
        "tags":[
            "Eethuis"
        ],
        "zip":2000
    },
    {
        "city":"Bornem",
        "lat":51.0932916722219,
        "lon":4.271762540195728,
        "name":"Vegabites",
        "street":"Woestijnstraat 53A",
        "tags":[
            "Cateraar"
        ],
        "zip":2880
    },
    {
        "city":"Leuven",
        "lat":50.8783538104658,
        "lon":4.703202973394043,
        "name":"Vegaverso",
        "street":"Tiensestraat 22",
        "tags":[
            "Eethuis",
            "100% plantaardig",
            "100% vegetarisch"
        ],
        "zip":3000
    },
    {
        "city":"Wilsele",
        "lat":50.89216298294885,
        "lon":4.705888328748434,
        "name":"Vera Cruz",
        "street":"Kolonel Begaultlaan 19",
        "tags":[
            "Eethuis"
        ],
        "zip":3012
    },
    {
        "city":"Antwerpen",
        "lat":51.22152980277357,
        "lon":4.404541466484001,
        "name":"Via Via Reiscaf\u00e9",
        "street":"Wolstraat 43",
        "tags":[
            "Eethuis"
        ],
        "zip":2000
    },
    {
        "city":"Heverlee",
        "lat":50.86188699055246,
        "lon":4.696125543616414,
        "name":"ViaVia Leuven",
        "street":"Naamsesteenweg 227",
        "tags":[
            "Eethuis"
        ],
        "zip":3001
    },
    {
        "city":"Walem",
        "lat":51.022924013784575,
        "lon":4.486596747936456,
        "name":"ViaVia Mechelen",
        "street":"Zandpoortvest 50",
        "tags":[
            "Eethuis",
            "Snack"
        ],
        "zip":2800
    },
    {
        "city":"Balen",
        "lat":51.17101204417554,
        "lon":5.164726656607828,
        "name":"Villa Muun",
        "street":"Nieuwstraat 8",
        "tags":[
            "Eethuis"
        ],
        "zip":2490
    },
    {
        "city":"Hamme",
        "lat":51.09728355421186,
        "lon":4.132025988717208,
        "name":"VivaVega / The Loving Hut Express",
        "street":"Museumstraat 10",
        "tags":[
            "Cateraar"
        ],
        "zip":9220
    },
    {
        "city":"Antwerpen",
        "lat":51.21744371133315,
        "lon":4.419036549851114,
        "name":"Wagamama",
        "street":"Keyserlei 15",
        "tags":[
            "Eethuis",
            "Snack",
            "Veganvriendelijk"
        ],
        "zip":2018
    },
    {
        "city":"Gent",
        "lat":51.058528457559746,
        "lon":3.7291100431827755,
        "name":"Wakame",
        "street":"Lostraat 32-34",
        "tags":[],
        "zip":9000
    },
    {
        "city":"Meerhout",
        "lat":51.129919133198,
        "lon":5.076480459558337,
        "name":"Wang Jiang",
        "street":"Schoolstraat 14",
        "tags":[
            "Eethuis"
        ],
        "zip":2450
    },
    {
        "city":"Deurne",
        "lat":51.22106210797976,
        "lon":4.467577031635216,
        "name":"Watsoep",
        "street":"Plankenbergstraat 112 L11",
        "tags":[
            "Cateraar"
        ],
        "zip":2100
    },
    {
        "city":"Deurne",
        "lat":51.22106210797976,
        "lon":4.467577031635216,
        "name":"Watsoep",
        "street":"Plankenbergstraat 112 L11",
        "tags":[
            "Eethuis",
            "100% vegetarisch"
        ],
        "zip":2100
    },
    {
        "city":"Berchem",
        "lat":51.205266712296286,
        "lon":4.432687846238203,
        "name":"Wattman",
        "street":"Tramplein 3",
        "tags":[
            "Eethuis"
        ],
        "zip":2600
    },
    {
        "city":" Borgloon",
        "lat":50.80222727398471,
        "lon":5.343436995639939,
        "name":"Welkom India",
        "street":"Papenstraat 2",
        "tags":[
            "Cateraar",
            "Eethuis"
        ],
        "zip":3840
    },
    {
        "city":"Leuven",
        "lat":50.878368864969346,
        "lon":4.697888896371858,
        "name":"Wereldcaf\u00e9.coop",
        "street":"Joris Helleputteplein 2",
        "tags":[
            "Snack"
        ],
        "zip":3000
    },
    {
        "city":" Antwerpen",
        "lat":51.21994992313579,
        "lon":4.397040223887933,
        "name":"Wild Project",
        "street":"Grote Pieter Potstraat 21",
        "tags":[
            "Eethuis",
            "100% vegetarisch",
            "Veganvriendelijk"
        ],
        "zip":2000
    },
    {
        "city":"Sint-Niklaas",
        "lat":51.1651679806304,
        "lon":4.141976084656444,
        "name":"Winny's",
        "street":"Houtbriel 5",
        "tags":[
            "Snack"
        ],
        "zip":9100
    },
    {
        "city":"Brussel",
        "lat":50.84111002452153,
        "lon":4.344133422148072,
        "name":"Witlov",
        "street":"Stalingradlaan 56",
        "tags":[
            "Cateraar"
        ],
        "zip":1000
    },
    {
        "city":"Gent",
        "lat":51.05666881888846,
        "lon":3.7113344770284917,
        "name":"Witte olifant-Chang Phuak",
        "street":"Zwarte zusterstraat 32",
        "tags":[
            "Eethuis",
            "Veganvriendelijk"
        ],
        "zip":9000
    },
    {
        "city":"Antwerpen",
        "lat":51.21780274161261,
        "lon":4.4201962412766935,
        "name":"Wok & Walk",
        "street":"Koningin Astridplein 32",
        "tags":[
            "Eethuis"
        ],
        "zip":2018
    },
    {
        "city":"Antwerpen",
        "lat":51.21741312892325,
        "lon":4.404509621314145,
        "name":"Wok A Way",
        "street":"Groendalstraat 14",
        "tags":[
            "Eethuis"
        ],
        "zip":2000
    },
    {
        "city":"Gent",
        "lat":51.054509029133065,
        "lon":3.722290196019319,
        "name":"Wokaway",
        "street":"Korenmarkt 11",
        "tags":[
            "Eethuis"
        ],
        "zip":9000
    },
    {
        "city":"Elsene",
        "lat":50.82218037166793,
        "lon":4.3631318592758825,
        "name":"YAG*",
        "street":"Rue Washington 59",
        "tags":[
            "Eethuis"
        ],
        "zip":1050
    },
    {
        "city":"Brussel",
        "lat":50.84923735021349,
        "lon":4.348460315815376,
        "name":"Yaki",
        "street":"Visverkopersstraat 6B",
        "tags":[
            "Eethuis"
        ],
        "zip":1000
    },
    {
        "city":"Kortrijk",
        "lat":50.80808305910597,
        "lon":3.2797088810694817,
        "name":"Yanto's Boutique",
        "street":"Doorniksesteenweg 117",
        "tags":[
            "Eethuis",
            "Snack"
        ],
        "zip":8500
    },
    {
        "city":"Brussel",
        "lat":50.84635305709842,
        "lon":4.3764340021413295,
        "name":"Yeti",
        "street":"Goede Bijstandstraat 4",
        "tags":[
            "Eethuis"
        ],
        "zip":1000
    },
    {
        "city":"Antwerpen",
        "lat":51.208482061341954,
        "lon":4.390880025967863,
        "name":"Z'Hoor",
        "street":"Verschansingstraat 28",
        "tags":[
            "Eethuis"
        ],
        "zip":2000
    },
    {
        "city":"Tremelo",
        "lat":50.99981171485267,
        "lon":4.749558921517834,
        "name":"The Vexican",
        "street":"Camille Huysmansstraat 126",
        "tags":[
            "Cateraar",
            "Snack",
            "100% vegetarisch",
            "Approved by EVA",
            "EVA voordeel",
            "Veganvriendelijk"
        ],
        "zip":3128
    },
    {
        "city":"Antwerpen",
        "lat":51.218385351929605,
        "lon":4.399357877940981,
        "name":"'t Koekebakske",
        "street":"Leeuwenstraat 23",
        "tags":[
            "Eethuis",
            "EVA voordeel"
        ],
        "zip":2000
    },
    {
        "city":"Ieper",
        "lat":50.849543772226255,
        "lon":2.8863381665928447,
        "name":"Agadir",
        "street":"Rijselstraat 42",
        "tags":[
            "Eethuis",
            "Snack"
        ],
        "zip":8900
    },
    {
        "city":"Wetteren",
        "lat":51.00217297024971,
        "lon":3.8875914088732486,
        "name":"Amuz&Vous",
        "street":"Victor Van Sandelaan 33",
        "tags":[
            "Cateraar"
        ],
        "zip":9230
    },
    {
        "city":"Waregem",
        "lat":50.870729494598294,
        "lon":3.397632962878593,
        "name":"BAOBAB Catering",
        "street":"Mirakelstraat 104A",
        "tags":[
            "Cateraar"
        ],
        "zip":8790
    },
    {
        "city":"Sint-Niklaas",
        "lat":51.16461233026816,
        "lon":4.142836540827675,
        "name":"Biko",
        "street":"Sacramentsstraat 3",
        "tags":[
            "Eethuis",
            "Snack"
        ],
        "zip":9100
    },
    {
        "city":"Aalst",
        "lat":50.939983118445085,
        "lon":4.02898384827834,
        "name":"Black and White",
        "street":"Koolstraat 107",
        "tags":[
            "Eethuis"
        ],
        "zip":9300
    },
    {
        "city":"Oostende",
        "lat":51.23115235995707,
        "lon":2.9150036519826585,
        "name":"Brasserie Buyl",
        "street":"Adolf Buylstraat 44B",
        "tags":[
            "Eethuis"
        ],
        "zip":8400
    },
    {
        "city":"Gent",
        "lat":51.04753532194943,
        "lon":3.7392711886277534,
        "name":"Caf\u00e9 De Kleine Kunst",
        "street":"Ferdinand Lousbergkaai 99",
        "tags":[
            "Eethuis",
            "EVA voordeel"
        ],
        "zip":9000
    },
    {
        "city":"Gent",
        "lat":51.036379827654144,
        "lon":3.7161672129454875,
        "name":"Caf\u00e9 Parti",
        "street":"Koningin Maria-Hendrikaplein 65a",
        "tags":[
            "Eethuis",
            "Veganvriendelijk"
        ],
        "zip":9000
    },
    {
        "city":"Brussel",
        "lat":50.84314226758593,
        "lon":4.347341194697616,
        "name":"Cafeabc",
        "street":"Philippe de Champagnestraat 23",
        "tags":[
            "Eethuis",
            "Snack"
        ],
        "zip":1000
    },
    {
        "city":"Drogenbos",
        "lat":50.78156305645173,
        "lon":4.31661255727227,
        "name":"Cook-Om",
        "street":"Marie Collartstraat",
        "tags":[
            "Eethuis",
            "EVA voordeel",
            "Veganvriendelijk"
        ],
        "zip":1620
    },
    {
        "city":"Elsene",
        "lat":50.82249491537016,
        "lon":4.361301054768735,
        "name":"Cr\u00eaperie au p\u2019tit Breton",
        "street":"Rue Am\u00e9ricaine 117",
        "tags":[
            "Snack"
        ],
        "zip":1050
    },
    {
        "city":"Mechelen",
        "lat":51.0290618159853,
        "lon":4.488280080616929,
        "name":"d'Afspraak",
        "street":"Keizerstraat 23",
        "tags":[
            "Eethuis"
        ],
        "zip":2800
    },
    {
        "city":"Wellen",
        "lat":50.84097654956267,
        "lon":5.308105034230186,
        "name":"De Bottelarij",
        "street":"Ulbeekstraat 21",
        "tags":[
            "Eethuis"
        ],
        "zip":3832
    },
    {
        "city":"Brugge",
        "lat":51.20801546511949,
        "lon":3.2228642331128525,
        "name":"De Bottelier",
        "street":"Sint Jakobstraat 63",
        "tags":[
            "Eethuis"
        ],
        "zip":8000
    },
    {
        "city":"Leuven",
        "lat":50.87305970607464,
        "lon":4.696587161773074,
        "name":"De Dijlemolens",
        "street":"Zwartzustersstraat 16",
        "tags":[
            "Eethuis"
        ],
        "zip":3000
    },
    {
        "city":"Holsbeek",
        "lat":50.915747648372886,
        "lon":4.807520754675542,
        "name":"De Gelaarsde Kat",
        "street":"Gobbelsrode 68a",
        "tags":[
            "Eethuis"
        ],
        "zip":3220
    },
    {
        "city":"Brugge-Sint Kruis",
        "lat":51.20768556028524,
        "lon":3.2782982449692675,
        "name":"De Jonkman",
        "street":"Maalse Steenweg 438",
        "tags":[
            "Gastronomisch",
            "Veganvriendelijk"
        ],
        "zip":8310
    },
    {
        "city":"Rumbeke",
        "lat":50.940853119308244,
        "lon":3.123873800952088,
        "name":"De Kleine Prins",
        "street":"Rijselstraat 5",
        "tags":[
            "Eethuis"
        ],
        "zip":8800
    },
    {
        "city":"Laakdal",
        "lat":51.08777822444371,
        "lon":5.0689052810212445,
        "name":"De Kruimel",
        "street":"Dikstraat 3",
        "tags":[
            "Eethuis"
        ],
        "zip":2430
    },
    {
        "city":"Kortrijk",
        "lat":50.82624906812174,
        "lon":3.2734970141452155,
        "name":"De Promenade",
        "street":"Veemarkt 30",
        "tags":[
            "Eethuis",
            "Snack"
        ],
        "zip":8500
    },
    {
        "city":"Brugge",
        "lat":51.20801546511949,
        "lon":3.2228642331128525,
        "name":"De Republiek",
        "street":"Sint Jacobsstraat 36",
        "tags":[
            "Eethuis",
            "Snack"
        ],
        "zip":8000
    },
    {
        "city":"Zoutenaaie",
        "lat":51.06465342677114,
        "lon":2.7307744620794177,
        "name":"De Reygaerd",
        "street":"Reygaerdijkstraat 22",
        "tags":[
            "Eethuis"
        ],
        "zip":8630
    },
    {
        "city":"Stokrooie",
        "lat":50.966124160569926,
        "lon":5.279991265198184,
        "name":"De Stroobander",
        "street":"Sint Jozefsplein 13",
        "tags":[
            "Eethuis"
        ],
        "zip":3511
    },
    {
        "city":"Gent",
        "lat":51.055719748430406,
        "lon":3.7087946627413633,
        "name":"De Walrus",
        "street":"Coupure Links 497",
        "tags":[
            "Eethuis"
        ],
        "zip":9000
    },
    {
        "city":"Hasselt",
        "lat":50.94450048610327,
        "lon":5.361322843381503,
        "name":"Double Dragons",
        "street":"Genkersteenweg 214",
        "tags":[
            "Eethuis"
        ],
        "zip":3500
    },
    {
        "city":"Oostende",
        "lat":51.233991155864814,
        "lon":2.9177648388281234,
        "name":"El Mariachi",
        "street":"Kapucijnenstraat 44",
        "tags":[
            "Eethuis"
        ],
        "zip":8400
    },
    {
        "city":"Sint-Maria-Horebeke",
        "lat":50.83845885800066,
        "lon":3.688273556090574,
        "name":"Elim",
        "street":"Dorpsstraat 30",
        "tags":[
            "Eethuis"
        ],
        "zip":9667
    },
    {
        "city":"Mechelen",
        "lat":51.02739024945941,
        "lon":4.478711258745668,
        "name":"Ellis Gourmet burger",
        "street":"IJzerenleen 10",
        "tags":[
            "Eethuis"
        ],
        "zip":2800
    },
    {
        "city":"Ixelles",
        "lat":50.83294097077088,
        "lon":4.366778892054664,
        "name":"Exki",
        "street":"Chauss\u00e9e D'Ixelles 12",
        "tags":[
            "Snack"
        ],
        "zip":1050
    },
    {
        "city":"Gent",
        "lat":51.04753532194943,
        "lon":3.7392711886277534,
        "name":"Fabula Rasa",
        "street":"Lousbergskaai 134",
        "tags":[
            "Eethuis"
        ],
        "zip":9000
    },
    {
        "city":"Gent",
        "lat":51.06112430697188,
        "lon":3.6932695393981017,
        "name":"Falafel Punt",
        "street":"Rooigemlaan 389",
        "tags":[
            "Eethuis",
            "EVA voordeel",
            "Veganvriendelijk"
        ],
        "zip":9000
    },
    {
        "city":"Gent",
        "lat":51.05000804846928,
        "lon":3.719499990341022,
        "name":"Foley's Irish Pub",
        "street":"Recollettenlei 10",
        "tags":[
            "Eethuis"
        ],
        "zip":9000
    },
    {
        "city":"Leuven",
        "lat":50.87141275848566,
        "lon":4.690779214197726,
        "name":"Frituur Tervuursepoort",
        "street":"Tervuursevest",
        "tags":[],
        "zip":3000
    },
    {
        "city":"Brussel",
        "lat":50.85240239069649,
        "lon":4.35351457245943,
        "name":"Happy Buddha",
        "street":"Emile Jacqmainlaan 7",
        "tags":[
            "Eethuis",
            "EVA voordeel"
        ],
        "zip":1000
    },
    {
        "city":"Leuven",
        "lat":50.88498605717642,
        "lon":4.719266161742309,
        "name":"Het geheim",
        "street":"Baron August de Becker Remyplein 19",
        "tags":[
            "Eethuis"
        ],
        "zip":3010
    },
    {
        "city":"Sint-Niklaas",
        "lat":51.1645671421227,
        "lon":4.142708094155377,
        "name":"Het Laatste Avondmaal",
        "street":"Sacramentsstraat",
        "tags":[],
        "zip":9100
    },
    {
        "city":"Nieuwkerke",
        "lat":50.7830491845225,
        "lon":2.8268628247046723,
        "name":"Het Labyrint",
        "street":"Dries 29",
        "tags":[
            "Eethuis"
        ],
        "zip":8956
    },
    {
        "city":"Manhay",
        "lat":50.262275,
        "lon":5.656895,
        "name":"Hotel les Sources",
        "street":"Route du Crahay 28",
        "tags":[
            "Eethuis",
            "EVA voordeel"
        ],
        "zip":6960
    },
    {
        "city":"Heuvelland",
        "lat":50.748353613531826,
        "lon":2.792665289404845,
        "name":"In de Wulf",
        "street":"Wulvestraat 1",
        "tags":[
            "Gastronomisch",
            "Veganvriendelijk"
        ],
        "zip":8951
    },
    {
        "city":"Hasselt",
        "lat":50.932453813844965,
        "lon":5.335460073350613,
        "name":"IZIBILIBOCO",
        "street":"Dorpsstraat 36",
        "tags":[
            "Eethuis",
            "100% vegetarisch",
            "EVA voordeel"
        ],
        "zip":3500
    },
    {
        "city":"Blankenberge",
        "lat":51.31494640794891,
        "lon":3.126780840833021,
        "name":"Klein Begin",
        "street":"Vissersstraat 23",
        "tags":[
            "Eethuis"
        ],
        "zip":8370
    },
    {
        "city":"Antwerpen",
        "lat":51.21963466612017,
        "lon":4.399630661487253,
        "name":"Krua Thai",
        "street":"Pelgrimstraat 13",
        "tags":[
            "Eethuis",
            "Veganvriendelijk"
        ],
        "zip":2000
    },
    {
        "city":"La-Roche-en-Ardenne",
        "lat":50.18126,
        "lon":5.575643,
        "name":"La Nature Gourmande",
        "street":"Rue Pumalet 9",
        "tags":[
            "Eethuis"
        ],
        "zip":6980
    },
    {
        "city":"Elsene",
        "lat":50.81778453806542,
        "lon":4.370880391068708,
        "name":"La Porte des Indes",
        "street":"Louizalaan 455",
        "tags":[
            "Eethuis"
        ],
        "zip":1050
    },
    {
        "city":"Leuven",
        "lat":50.88101844104403,
        "lon":4.698717461992025,
        "name":"La Stanza",
        "street":"Wandelingstraat 8",
        "tags":[
            "Eethuis"
        ],
        "zip":3000
    },
    {
        "city":"Heldergem",
        "lat":50.90644752252776,
        "lon":4.024136175932285,
        "name":"Labaij Kris",
        "street":"Stationsstraat 220",
        "tags":[
            "Snack"
        ],
        "zip":9450
    },
    {
        "city":"Mechelen",
        "lat":51.03057816302183,
        "lon":4.482054488972484,
        "name":"Lan Na Thai",
        "street":"Frederik de Merodestraat 59",
        "tags":[
            "Eethuis",
            "Veganvriendelijk"
        ],
        "zip":2800
    },
    {
        "city":"Brussel",
        "lat":50.847862473722664,
        "lon":4.351854614231369,
        "name":"Le Bar \u00e0 Tapas",
        "street":"Rue Borgvalstraat 11",
        "tags":[
            "Eethuis"
        ],
        "zip":1000
    },
    {
        "city":"Etterbeek",
        "lat":50.8307725515541,
        "lon":4.389419219700109,
        "name":"Le Bol de Riz",
        "street":"Chauss\u00e9e de Wavre 335",
        "tags":[
            "Eethuis"
        ],
        "zip":1040
    },
    {
        "city":"Ixelles",
        "lat":50.81858364363958,
        "lon":4.38338257537767,
        "name":"Le Grenier d'Elvire",
        "street":"Chauss\u00e9e de Boondael 339a",
        "tags":[
            "Eethuis"
        ],
        "zip":1050
    },
    {
        "city":"Elsene",
        "lat":50.836132098538194,
        "lon":4.361810154666128,
        "name":"Les Jardins de Bagatelle",
        "street":"Herdersstraat 17",
        "tags":[
            "Eethuis"
        ],
        "zip":1050
    },
    {
        "city":"Antwerpen",
        "lat":51.22430063798104,
        "lon":4.421778083510996,
        "name":"Les Odettes",
        "street":"Dambruggestraat 36/1",
        "tags":[],
        "zip":2060
    },
    {
        "city":"Laar",
        "lat":51.21867154334976,
        "lon":4.426752383324471,
        "name":"Loes & Krikke bvba",
        "street":"Congresstraat",
        "tags":[
            "Cateraar"
        ],
        "zip":2060
    },
    {
        "city":"Brugge",
        "lat":51.209812420194034,
        "lon":3.226483870185225,
        "name":"Lotus",
        "street":"Wapenmakersstraat 5",
        "tags":[
            "Eethuis"
        ],
        "zip":8000
    },
    {
        "city":"Sint-Niklaas",
        "lat":51.16850816904729,
        "lon":4.140115558305267,
        "name":"Moon Eat",
        "street":"Rich. van Britsomstraat 18,",
        "tags":[],
        "zip":9100
    },
    {
        "city":"Brussel",
        "lat":50.84721615790801,
        "lon":4.361368496059801,
        "name":"Moonfood",
        "street":"Koloni\u00ebnstraat",
        "tags":[
            "Eethuis",
            "Snack"
        ],
        "zip":58
    },
    {
        "city":"Ixelles",
        "lat":50.82243218147768,
        "lon":4.368737676178942,
        "name":"O Liban",
        "street":"Chauss\u00e9e de Vleurgat 324",
        "tags":[
            "Eethuis",
            "Veganvriendelijk"
        ],
        "zip":1050
    },
    {
        "city":"Sint-Gillis",
        "lat":50.831634943997585,
        "lon":4.3436130368112025,
        "name":"Ozfair",
        "street":"Jean Volderslaan",
        "tags":[
            "Eethuis"
        ],
        "zip":1060
    },
    {
        "city":"Brugge",
        "lat":51.20586663915748,
        "lon":3.2191247459149515,
        "name":"Passage",
        "street":"Dweersstraat 26",
        "tags":[
            "Eethuis"
        ],
        "zip":8000
    },
    {
        "city":"Gent",
        "lat":51.04332279167811,
        "lon":3.7249256805045556,
        "name":"Pasta Presto",
        "street":"Sint-Amandstraat 17",
        "tags":[
            "Eethuis"
        ],
        "zip":9000
    },
    {
        "city":"Gent",
        "lat":51.04351139722262,
        "lon":3.7248945699168647,
        "name":"Petrus",
        "street":"Sint-Amandstraat 15",
        "tags":[
            "Eethuis",
            "Snack",
            "Veganvriendelijk"
        ],
        "zip":9000
    },
    {
        "city":"Hasselt",
        "lat":50.932379914450635,
        "lon":5.335700399626532,
        "name":"Pocomatto",
        "street":"Dorpsstraat 42",
        "tags":[
            "Eethuis"
        ],
        "zip":3500
    },
    {
        "city":"Zegelsem",
        "lat":50.79373791875597,
        "lon":3.7175001627977577,
        "name":"Ponderspijs",
        "street":"Rovorst 33",
        "tags":[
            "Cateraar"
        ],
        "zip":9660
    },
    {
        "city":"Aalst",
        "lat":50.941481263289425,
        "lon":4.037367638854749,
        "name":"Qarfa",
        "street":"Stationsstraat 13",
        "tags":[],
        "zip":9300
    },
    {
        "city":"Kortrijk",
        "lat":50.81461894247178,
        "lon":3.245370989893236,
        "name":"Repos et Repas",
        "street":"Engelse Wandeling 2",
        "tags":[
            "Eethuis"
        ],
        "zip":8500
    },
    {
        "city":"Brussel",
        "lat":50.84904941738051,
        "lon":4.354438613128288,
        "name":"Ricotta & Parmesan",
        "street":"Schildknaaps Straat 31",
        "tags":[
            "Eethuis"
        ],
        "zip":1000
    },
    {
        "city":"Gent",
        "lat":51.03817709725133,
        "lon":3.722586781062788,
        "name":"S.M.A.K caf\u00e9 by Grade",
        "street":"Jan Hoetplein 1",
        "tags":[
            "Snack"
        ],
        "zip":9000
    },
    {
        "city":"Kasterlee",
        "lat":51.23387387414675,
        "lon":4.971535699587303,
        "name":"Seven Hill",
        "street":"Geelsebaan 29/2",
        "tags":[
            "Eethuis"
        ],
        "zip":2460
    },
    {
        "city":"Vorst",
        "lat":50.8125173892532,
        "lon":4.324027938080416,
        "name":"Sinstreetfood",
        "street":"Rue Royale 165",
        "tags":[
            "Snack",
            "100% vegetarisch",
            "EVA voordeel"
        ],
        "zip":1190
    },
    {
        "city":"Brussel",
        "lat":50.841462059756566,
        "lon":4.352765477053187,
        "name":"Skievelat",
        "street":"Joseph Stevensstraat 16-18",
        "tags":[
            "Eethuis"
        ],
        "zip":1000
    },
    {
        "city":"Gent",
        "lat":51.071784101804795,
        "lon":3.7301275120078174,
        "name":"Soeperstar",
        "street":"Makelaarsstraat 24",
        "tags":[
            "Cateraar"
        ],
        "zip":9000
    },
    {
        "city":"Waardamme",
        "lat":51.109887151544775,
        "lon":3.221312856732368,
        "name":"t Oud Gemeentehuis",
        "street":"Kortrijksestraat 405",
        "tags":[
            "Eethuis"
        ],
        "zip":8020
    },
    {
        "city":"Elsene",
        "lat":50.82422075201777,
        "lon":4.358930651079416,
        "name":"Tan",
        "street":"Waterleidingsstraat 95",
        "tags":[
            "Eethuis"
        ],
        "zip":1050
    },
    {
        "city":"Brussel",
        "lat":50.85347214426758,
        "lon":4.353542644100108,
        "name":"Tarte Julie",
        "street":"Emile Jacqmainlaan 56",
        "tags":[
            "Eethuis",
            "EVA voordeel"
        ],
        "zip":1000
    },
    {
        "city":"Rocourt",
        "lat":50.642521,
        "lon":5.569165,
        "name":"Tasty III",
        "street":"Rue de la casquette 17",
        "tags":[
            "Snack",
            "100% vegetarisch",
            "EVA voordeel"
        ],
        "zip":4000
    },
    {
        "city":"Leuven",
        "lat":50.87734615184162,
        "lon":4.703494168185616,
        "name":"Thai House",
        "street":"Alfons Smetsplein",
        "tags":[
            "Eethuis"
        ],
        "zip":3000
    },
    {
        "city":"Elsene",
        "lat":50.81860156448049,
        "lon":4.383822497652958,
        "name":"Tom Yam",
        "street":"Boondaalse Steenweg 341",
        "tags":[
            "Eethuis"
        ],
        "zip":1050
    },
    {
        "city":"Brussel",
        "lat":50.85231214252864,
        "lon":4.350901610751696,
        "name":"Toukoul",
        "street":"Lakensestraat 34",
        "tags":[
            "Eethuis",
            "EVA voordeel",
            "Veganvriendelijk"
        ],
        "zip":1000
    },
    {
        "city":"Gent",
        "lat":51.035159186476875,
        "lon":3.7165121218884276,
        "name":"Tuin van Eten",
        "street":"Kortrijksesteenweg 573",
        "tags":[
            "Eethuis",
            "Veganvriendelijk"
        ],
        "zip":9000
    },
    {
        "city":"Merelbeke",
        "lat":51.01910438947989,
        "lon":3.7533206846707556,
        "name":"Villa Florazicht",
        "street":"Hundelgemsesteenweg 182",
        "tags":[
            "Eethuis"
        ],
        "zip":9820
    },
    {
        "city":"Gent",
        "lat":51.061208593462986,
        "lon":3.734351476392869,
        "name":"Wereldrestaurant De Centrale",
        "street":"Kraankindersstraat 2",
        "tags":[
            "Eethuis"
        ],
        "zip":9000
    },
    {
        "city":"Antwerpen",
        "lat":51.21994025605453,
        "lon":4.3996881203456155,
        "name":"Yuna",
        "street":"Pelgrimstraat 2",
        "tags":[
            "Eethuis",
            "Veganvriendelijk"
        ],
        "zip":2000
    }
]
